[
  {
    "schoolId": "04Y05",
    "name": "Herder-Gymnasium",
    "lat": 52.51004,
    "lon": 13.26732,
    "address": "Bayernallee 49, 14052 Berlin",
    "bezirk": "Char-Wil",
    "art": "unbekannt",
    "status": "Kontrolle",
    "csvRowId": 1
  },
  {
    "schoolId": "04K02",
    "name": "Friedensburg Oberschule",
    "lat": 52.502195,
    "lon": 13.3192063,
    "address": "Bleibtreustr. 20, 10623 Berlin",
    "bezirk": "Char-Wil",
    "art": "unbekannt",
    "status": "Kontrolle",
    "csvRowId": 2
  },
  {
    "schoolId": "04G04",
    "name": "Joan-Miró-Grundschule",
    "lat": 52.502195,
    "lon": 13.3192063,
    "address": "Bleibtreustr. 20, 10623 Berlin",
    "bezirk": "Char-Wil",
    "art": "unbekannt",
    "status": "Kontrolle",
    "csvRowId": 3
  },
  {
    "schoolId": "04G09",
    "name": "Erwin-von-Witzleben-Grundschule",
    "lat": 52.4493199,
    "lon": 13.3429879,
    "address": "Karl-Stieler-Str. 10, 12167 Berlin",
    "bezirk": "Char-Wil",
    "art": "unbekannt",
    "status": "Kontrolle",
    "csvRowId": 4
  },
  {
    "schoolId": "04G13",
    "name": "Nehring-Grundschule",
    "lat": 52.5191843,
    "lon": 13.2967373,
    "address": "Schloßstr. 70, 14059 Berlin",
    "bezirk": "Char-Wil",
    "art": "unbekannt",
    "status": "Kontrolle",
    "csvRowId": 5
  },
  {
    "schoolId": "04Y04",
    "name": "Gottfried-Keller-Gymnasium",
    "lat": 52.52888,
    "lon": 13.3022,
    "address": "Olbersstr. 38, 10589 Berlin",
    "bezirk": "Char-Wil",
    "art": "unbekannt",
    "status": "Kontrolle",
    "csvRowId": 6
  },
  {
    "schoolId": "04G08",
    "name": "Mierendorff-Grundschule",
    "lat": 52.52348,
    "lon": 13.30288,
    "address": "Mierendorffstr. 20, 10589 Berlin",
    "bezirk": "Char-Wil",
    "art": "unbekannt",
    "status": "Kontrolle",
    "csvRowId": 7
  },
  {
    "schoolId": "04K5",
    "name": "Paula-Fürst-Gemeinschaftsschule",
    "lat": 52.50227,
    "lon": 13.3019399,
    "address": "Sybelstr. 20, 10629 Berlin",
    "bezirk": "Char-Wil",
    "art": "unbekannt",
    "status": "Kontrolle",
    "csvRowId": 8
  },
  {
    "schoolId": "04G06",
    "name": "Wald-Grundschule",
    "lat": 52.5011903,
    "lon": 13.3854877,
    "address": "Hallesche Str. 1, 10963 Berlin",
    "bezirk": "Char-Wil",
    "art": "unbekannt",
    "status": "Kontrolle",
    "csvRowId": 9
  },
  {
    "schoolId": "04G19",
    "name": "Grundschule am Rüdesheimer Platz",
    "lat": 52.4729341,
    "lon": 13.3140295,
    "address": "Rüdesheimer Str. 8, 14197 Berlin",
    "bezirk": "Char-Wil",
    "art": "unbekannt",
    "status": "Kontrolle",
    "csvRowId": 10
  },
  {
    "schoolId": "04Y09",
    "name": "Walther-Rathenau-Gymnasium",
    "lat": 52.49143,
    "lon": 13.28135,
    "address": "Herbertstr. 2, 14193 Berlin",
    "bezirk": "Char-Wil",
    "art": "unbekannt",
    "status": "Kontrolle",
    "csvRowId": 11
  },
  {
    "schoolId": "04K07",
    "name": "Integrierte Sekundarschule Wilmersdorf",
    "lat": 52.475327,
    "lon": 13.2950561,
    "address": "Friedrichshaller Str. 13, 14199 Berlin",
    "bezirk": "Char-Wil",
    "art": "unbekannt",
    "status": "Kontrolle",
    "csvRowId": 12
  },
  {
    "schoolId": "04G23",
    "name": "Alt-Schmargendorf-Grundschule\nCampus Schmargendorf",
    "lat": 52.47694,
    "lon": 13.29355,
    "address": "Reichenhaller Str. 8, 14199 Berlin",
    "bezirk": "Char-Wil",
    "art": "unbekannt",
    "status": "Kontrolle",
    "csvRowId": 13
  },
  {
    "schoolId": "04G27",
    "name": "Judith-Kerr-Grundschule",
    "lat": 52.475327,
    "lon": 13.2950561,
    "address": "Friedrichshaller Str. 13, 14199 Berlin",
    "bezirk": "Char-Wil",
    "art": "unbekannt",
    "status": "Kontrolle",
    "csvRowId": 14
  },
  {
    "schoolId": "04Y06",
    "name": "Heinz-Berggruen-Gymnasium",
    "lat": 52.51004,
    "lon": 13.26732,
    "address": "Bayernallee 49, 14052 Berlin",
    "bezirk": "Char-Wil",
    "art": "unbekannt",
    "status": "Kontrolle",
    "csvRowId": 15
  },
  {
    "schoolId": "04G05",
    "name": "Dietrich-Bonhoeffer-Grundschule",
    "lat": 52.5976429,
    "lon": 13.3648821,
    "address": "Wilhelmsruher Damm 90, Charlie-Chaplin-Grundschule, 13439 Berlin",
    "bezirk": "Char-Wil",
    "art": "unbekannt",
    "status": "Kontrolle",
    "csvRowId": 16
  },
  {
    "schoolId": "04G21",
    "name": "Halensee-Grundschule",
    "lat": 52.4971442,
    "lon": 13.2958481,
    "address": "Joachim-Friedrich-Str. 46, 10711 Berlin",
    "bezirk": "Char-Wil",
    "art": "unbekannt",
    "status": "Kontrolle",
    "csvRowId": 17
  },
  {
    "schoolId": "04K07",
    "name": "Integrierte Sekundarschule Wilmersdorf\nISS Wilmersdorf",
    "lat": 52.475327,
    "lon": 13.2950561,
    "address": "Friedrichshaller Str. 13, 14199 Berlin",
    "bezirk": "Char-Wil",
    "art": "unbekannt",
    "status": "Kontrolle",
    "csvRowId": 18
  },
  {
    "schoolId": "04S07",
    "name": "Comenius-Schule",
    "lat": 52.4849919,
    "lon": 13.3200416,
    "address": "Blissestr. 14, 10713 Berlin",
    "bezirk": "Char-Wil",
    "art": "unbekannt",
    "status": "Kontrolle",
    "csvRowId": 19
  },
  {
    "schoolId": "04G20",
    "name": "Katharina-Heinroth-Grundschule",
    "lat": 52.4953592,
    "lon": 13.3046681,
    "address": "Eisenzahnstr. 13, 10709 Berlin",
    "bezirk": "Char-Wil",
    "art": "unbekannt",
    "status": "Kontrolle",
    "csvRowId": 20
  },
  {
    "schoolId": "04G17",
    "name": "Johann-Peter-Hebel-Grundschule",
    "lat": 52.55575,
    "lon": 13.3337501,
    "address": "Afrikanische Str. 123, 13351 Berlin",
    "bezirk": "Char-Wil",
    "art": "unbekannt",
    "status": "Kontrolle",
    "csvRowId": 21
  },
  {
    "schoolId": "04Y11",
    "name": "Goethe-Gymnasium",
    "lat": 52.48782689999999,
    "lon": 13.3215387,
    "address": "Gasteiner Str. 11, 10717 Berlin",
    "bezirk": "Char-Wil",
    "art": "unbekannt",
    "status": "Kontrolle",
    "csvRowId": 22
  },
  {
    "schoolId": "04G22",
    "name": "Grunewald-Grundschule",
    "lat": 52.49143,
    "lon": 13.28135,
    "address": "Herbertstr. 2, 14193 Berlin",
    "bezirk": "Char-Wil",
    "art": "unbekannt",
    "status": "Kontrolle",
    "csvRowId": 23
  },
  {
    "schoolId": "04Y10",
    "name": "Marie-Curie-Gymnasium",
    "lat": 52.48717,
    "lon": 13.33349,
    "address": "Prinzregentenstr. 78, 10715 Berlin",
    "bezirk": "Char-Wil",
    "art": "unbekannt",
    "status": "Kontrolle",
    "csvRowId": 24
  },
  {
    "schoolId": "04K03",
    "name": "Robert-Jungk-Schule\nOberschule, Gesamtschule",
    "lat": 52.5395715,
    "lon": 13.4958625,
    "address": "Werneuchener Str. 15, 13055 Berlin",
    "bezirk": "Char-Wil",
    "art": "unbekannt",
    "status": "Kontrolle",
    "csvRowId": 25
  },
  {
    "schoolId": "04G18",
    "name": "Ernst-Habermann-Grundschule",
    "lat": 52.48717,
    "lon": 13.33349,
    "address": "Prinzregentenstr. 78, 10715 Berlin",
    "bezirk": "Char-Wil",
    "art": "unbekannt",
    "status": "Kontrolle",
    "csvRowId": 26
  },
  {
    "schoolId": "04K06",
    "name": "Schule am Schloss",
    "lat": 52.5191843,
    "lon": 13.2967373,
    "address": "Schloßstr. 70, 14059 Berlin",
    "bezirk": "Char-Wil",
    "art": "unbekannt",
    "status": "Kontrolle",
    "csvRowId": 27
  },
  {
    "schoolId": "04K09",
    "name": "Otto-von-Guericke-Schule",
    "lat": 52.4953592,
    "lon": 13.3046681,
    "address": "Eisenzahnstr. 13, 10709 Berlin",
    "bezirk": "Char-Wil",
    "art": "unbekannt",
    "status": "Kontrolle",
    "csvRowId": 28
  },
  {
    "schoolId": "04G12",
    "name": "Schinkel-Grundschule",
    "lat": 52.44743,
    "lon": 13.31824,
    "address": "Haydnstr. 12, 12203 Berlin",
    "bezirk": "Char-Wil",
    "art": "unbekannt",
    "status": "Kontrolle",
    "csvRowId": 29
  },
  {
    "schoolId": "04Y01",
    "name": "Schiller-Gymnasium",
    "lat": 52.4331464,
    "lon": 13.3416744,
    "address": "Barbarastr. 14, 12249 Berlin",
    "bezirk": "Char-Wil",
    "art": "unbekannt",
    "status": "Kontrolle",
    "csvRowId": 30
  },
  {
    "schoolId": "04Y07",
    "name": "Friedrich-Ebert-Gymnasium",
    "lat": 52.4849919,
    "lon": 13.3200416,
    "address": "Blissestr. 14, 10713 Berlin",
    "bezirk": "Char-Wil",
    "art": "unbekannt",
    "status": "Kontrolle",
    "csvRowId": 31
  },
  {
    "schoolId": "04A08",
    "name": "Sportschule im Olympiapark - Poelchau-Schule",
    "lat": 52.5641368,
    "lon": 13.500075,
    "address": "Barther Str. 27, 13051 Berlin",
    "bezirk": "Char-Wil",
    "art": "unbekannt",
    "status": "Kontrolle",
    "csvRowId": 32
  },
  {
    "schoolId": "04Y02",
    "name": "Wald-Gymnasium",
    "lat": 52.4331464,
    "lon": 13.3416744,
    "address": "Barbarastr. 14, 12249 Berlin",
    "bezirk": "Char-Wil",
    "art": "unbekannt",
    "status": "Kontrolle",
    "csvRowId": 33
  },
  {
    "schoolId": "04Y03",
    "name": "Sophie-Charlotte-Gymnasium",
    "lat": 52.502145,
    "lon": 13.3046078,
    "address": "Sybelstr. 17, 10629 Berlin",
    "bezirk": "Char-Wil",
    "art": "unbekannt",
    "status": "Kontrolle",
    "csvRowId": 34
  },
  {
    "schoolId": "02G03",
    "name": "Justus von Liebig Grundschule",
    "lat": 52.5162339,
    "lon": 13.4579194,
    "address": "Liebigstr. 2, 10247 Berlin",
    "bezirk": "Friedrichshain-Kreuzberg",
    "art": "unbekannt",
    "status": "Kontrolle",
    "csvRowId": 35
  },
  {
    "schoolId": "02G10",
    "name": "Modersohn Grundschule",
    "lat": 52.50705,
    "lon": 13.4602401,
    "address": "Niemannstr. 3, 10245 Berlin",
    "bezirk": "Friedrichshain-Kreuzberg",
    "art": "unbekannt",
    "status": "Kontrolle",
    "csvRowId": 36
  },
  {
    "schoolId": "02G08",
    "name": "Grundschule am Traveplatz",
    "lat": 52.5162339,
    "lon": 13.4579194,
    "address": "Liebigstr. 2, 10247 Berlin",
    "bezirk": "Friedrichshain-Kreuzberg",
    "art": "unbekannt",
    "status": "Kontrolle",
    "csvRowId": 37
  },
  {
    "schoolId": "02G02",
    "name": "Hausburg Grundschule",
    "lat": 52.5241974,
    "lon": 13.4542842,
    "address": "Hausburgstr. 20, 10249 Berlin",
    "bezirk": "Friedrichshain-Kreuzberg",
    "art": "unbekannt",
    "status": "Kontrolle",
    "csvRowId": 38
  },
  {
    "schoolId": "02G11",
    "name": "Thalia-Grundschule",
    "lat": 52.49288139999999,
    "lon": 13.476151,
    "address": "Alt-Stralau 34, 10245 Berlin",
    "bezirk": "Friedrichshain-Kreuzberg",
    "art": "unbekannt",
    "status": "Kontrolle",
    "csvRowId": 39
  },
  {
    "schoolId": "02Y01",
    "name": "Andreas-Gymnasium",
    "lat": 52.4331464,
    "lon": 13.3416744,
    "address": "Barbarastr. 14, 12249 Berlin",
    "bezirk": "Friedrichshain-Kreuzberg",
    "art": "unbekannt",
    "status": "Kontrolle",
    "csvRowId": 40
  },
  {
    "schoolId": "02G04",
    "name": "Pettenkofer-Grundschule",
    "lat": 52.5182234,
    "lon": 13.4713295,
    "address": "Pettenkoferstr. 16, 10247 Berlin",
    "bezirk": "Friedrichshain-Kreuzberg",
    "art": "unbekannt",
    "status": "Kontrolle",
    "csvRowId": 41
  },
  {
    "schoolId": "02K07",
    "name": "Georg-Weerth-Schule",
    "lat": 52.5241974,
    "lon": 13.4542842,
    "address": "Hausburgstr. 20, 10249 Berlin",
    "bezirk": "Friedrichshain-Kreuzberg",
    "art": "unbekannt",
    "status": "Kontrolle",
    "csvRowId": 42
  },
  {
    "schoolId": "02Gn05",
    "name": "Heinrich-Hertz-Oberschule\nGrundschule Rigaer Straße",
    "lat": 52.5162339,
    "lon": 13.4579194,
    "address": "Liebigstr. 2, 10247 Berlin",
    "bezirk": "Friedrichshain-Kreuzberg",
    "art": "unbekannt",
    "status": "Kontrolle",
    "csvRowId": 43
  },
  {
    "schoolId": "02Y03",
    "name": "Heinrich-Hertz-Gymnasium",
    "lat": 52.52892,
    "lon": 13.46817,
    "address": "Franz-Jacob-Str. 14, 10369 Berlin",
    "bezirk": "Friedrichshain-Kreuzberg",
    "art": "unbekannt",
    "status": "Kontrolle",
    "csvRowId": 44
  },
  {
    "schoolId": "02Y04",
    "name": "Georg-Friedrich-Händel-Gymnasium",
    "lat": 52.5162339,
    "lon": 13.4579194,
    "address": "Liebigstr. 2, 10247 Berlin",
    "bezirk": "Friedrichshain-Kreuzberg",
    "art": "unbekannt",
    "status": "Kontrolle",
    "csvRowId": 45
  },
  {
    "schoolId": "02K10",
    "name": "Ferdinand-Freiligrath-Schule",
    "lat": 52.4889246,
    "lon": 13.393918,
    "address": "Bergmannstr. 23, 10961 Berlin",
    "bezirk": "Friedrichshain-Kreuzberg",
    "art": "unbekannt",
    "status": "Kontrolle",
    "csvRowId": 46
  },
  {
    "schoolId": "02G13",
    "name": "Charlotte-Salomon-Grundschule",
    "lat": 52.49084999999999,
    "lon": 13.38065,
    "address": "Hagelberger Str. 34, 10965 ",
    "bezirk": "Friedrichshain-Kreuzberg",
    "art": "unbekannt",
    "status": "Kontrolle",
    "csvRowId": 47
  },
  {
    "schoolId": "02Y07",
    "name": "Robert-Koch-Gymnasium",
    "lat": 52.5018288,
    "lon": 13.4900872,
    "address": "Lückstr. 60, 10317 Berlin",
    "bezirk": "Friedrichshain-Kreuzberg",
    "art": "unbekannt",
    "status": "Kontrolle",
    "csvRowId": 48
  },
  {
    "schoolId": "02G26",
    "name": "Lemgo-Grundschule",
    "lat": 52.55575,
    "lon": 13.3337501,
    "address": "Afrikanische Str. 123, 13351 Berlin",
    "bezirk": "Friedrichshain-Kreuzberg",
    "art": "unbekannt",
    "status": "Kontrolle",
    "csvRowId": 49
  },
  {
    "schoolId": "02G12",
    "name": "Kurt-Schumacher-Grundschule",
    "lat": 52.50732379999999,
    "lon": 13.3901385,
    "address": "Friedrichstr. 207, 10969 Berlin",
    "bezirk": "Friedrichshain-Kreuzberg",
    "art": "unbekannt",
    "status": "Kontrolle",
    "csvRowId": 50
  },
  {
    "schoolId": "02S02",
    "name": "Gustav-Meyer-Schule",
    "lat": 52.4948978,
    "lon": 13.4314741,
    "address": "Reichenberger Str. 65, 10999 Berlin",
    "bezirk": "Friedrichshain-Kreuzberg",
    "art": "unbekannt",
    "status": "Kontrolle",
    "csvRowId": 51
  },
  {
    "schoolId": "02G24",
    "name": "Otto-Wels-Grundschule",
    "lat": 52.50732379999999,
    "lon": 13.3901385,
    "address": "Friedrichstr. 207, 10969 Berlin",
    "bezirk": "Friedrichshain-Kreuzberg",
    "art": "unbekannt",
    "status": "Kontrolle",
    "csvRowId": 52
  },
  {
    "schoolId": "02G32",
    "name": "Clara-Grunwald-Grundschule",
    "lat": 52.500939,
    "lon": 13.3848935,
    "address": "Hallesche Str. 24, 10963 Berlin",
    "bezirk": "Friedrichshain-Kreuzberg",
    "art": "unbekannt",
    "status": "Kontrolle",
    "csvRowId": 53
  },
  {
    "schoolId": "02G35",
    "name": "Rosa-Parks-Grundschule",
    "lat": 52.4948978,
    "lon": 13.4314741,
    "address": "Reichenberger Str. 65, 10999 Berlin",
    "bezirk": "Friedrichshain-Kreuzberg",
    "art": "unbekannt",
    "status": "Kontrolle",
    "csvRowId": 54
  },
  {
    "schoolId": "02G23",
    "name": "Fichtelgebirge-Grundschule",
    "lat": 52.50546869999999,
    "lon": 13.4268587,
    "address": "Mariannenplatz 28, 10997 Berlin",
    "bezirk": "Friedrichshain-Kreuzberg",
    "art": "unbekannt",
    "status": "Kontrolle",
    "csvRowId": 55
  },
  {
    "schoolId": "02K08",
    "name": "Refik-Veseli-Schule",
    "lat": 52.50546869999999,
    "lon": 13.4268587,
    "address": "Mariannenplatz 28, 10997 Berlin",
    "bezirk": "Friedrichshain-Kreuzberg",
    "art": "unbekannt",
    "status": "Kontrolle",
    "csvRowId": 56
  },
  {
    "schoolId": "02G09",
    "name": "Zille-Grundschule",
    "lat": 52.5089841,
    "lon": 13.4652946,
    "address": "Boxhagener Str. 46, 10245 Berlin",
    "bezirk": "Friedrichshain-Kreuzberg",
    "art": "unbekannt",
    "status": "Kontrolle",
    "csvRowId": 57
  },
  {
    "schoolId": "02G29",
    "name": "Heinrich-Zille-Grundschule",
    "lat": 52.50546869999999,
    "lon": 13.4268587,
    "address": "Mariannenplatz 28, 10997 Berlin",
    "bezirk": "Friedrichshain-Kreuzberg",
    "art": "unbekannt",
    "status": "Kontrolle",
    "csvRowId": 58
  },
  {
    "schoolId": "02K04",
    "name": "Lenau-Grundschule\nBergmannkiez-Gemeinschaftsschule",
    "lat": 52.49391259999999,
    "lon": 13.3916533,
    "address": "Nostitzstr. 60, 10961 Berlin",
    "bezirk": "Friedrichshain-Kreuzberg",
    "art": "unbekannt",
    "status": "Kontrolle",
    "csvRowId": 59
  },
  {
    "schoolId": "02G18",
    "name": "Nürtingen-Grundschule",
    "lat": 52.50546869999999,
    "lon": 13.4268587,
    "address": "Mariannenplatz 28, 10997 Berlin",
    "bezirk": "Friedrichshain-Kreuzberg",
    "art": "unbekannt",
    "status": "Kontrolle",
    "csvRowId": 60
  },
  {
    "schoolId": "02G21",
    "name": "Reinhardswald-Grundschule",
    "lat": 52.49059,
    "lon": 13.3999,
    "address": "Gneisenaustr. 73, 10961 Berlin",
    "bezirk": "Friedrichshain-Kreuzberg",
    "art": "unbekannt",
    "status": "Kontrolle",
    "csvRowId": 61
  },
  {
    "schoolId": "02G22",
    "name": "Jens-Nydahl-Grundschule",
    "lat": 52.4948978,
    "lon": 13.4314741,
    "address": "Reichenberger Str. 65, 10999 Berlin",
    "bezirk": "Friedrichshain-Kreuzberg",
    "art": "unbekannt",
    "status": "Kontrolle",
    "csvRowId": 62
  },
  {
    "schoolId": "02G14",
    "name": "Galilei-Grundschule",
    "lat": 52.501744,
    "lon": 13.3917152,
    "address": "Friedrichstr. 13, 10969 Berlin",
    "bezirk": "Friedrichshain-Kreuzberg",
    "art": "unbekannt",
    "status": "Kontrolle",
    "csvRowId": 63
  },
  {
    "schoolId": "02G31",
    "name": "Adolf-Glaßbrenner-Grundschule",
    "lat": 52.49084999999999,
    "lon": 13.38065,
    "address": "Hagelberger Str. 34, 10965 ",
    "bezirk": "Friedrichshain-Kreuzberg",
    "art": "unbekannt",
    "status": "Kontrolle",
    "csvRowId": 64
  },
  {
    "schoolId": "02K02",
    "name": "Carl-von-Ossietzky-Schule",
    "lat": 52.4941938,
    "lon": 13.3987461,
    "address": "Blücherstr. 23, 10961 Berlin",
    "bezirk": "Friedrichshain-Kreuzberg",
    "art": "unbekannt",
    "status": "Kontrolle",
    "csvRowId": 65
  },
  {
    "schoolId": "02K04",
    "name": "Lina-Morgenstern-Schule",
    "lat": 52.4941938,
    "lon": 13.3987461,
    "address": "Blücherstr. 23, 10961 Berlin",
    "bezirk": "Friedrichshain-Kreuzberg",
    "art": "unbekannt",
    "status": "Kontrolle",
    "csvRowId": 66
  },
  {
    "schoolId": "02K08",
    "name": "Refik-Veseli-Schule",
    "lat": 52.50546869999999,
    "lon": 13.4268587,
    "address": "Mariannenplatz 28, 10997 Berlin",
    "bezirk": "Friedrichshain-Kreuzberg",
    "art": "unbekannt",
    "status": "Kontrolle",
    "csvRowId": 67
  },
  {
    "schoolId": "02Y06",
    "name": "Leibniz-Gymnasium",
    "lat": 52.4941938,
    "lon": 13.3987461,
    "address": "Blücherstr. 23, 10961 Berlin",
    "bezirk": "Friedrichshain-Kreuzberg",
    "art": "unbekannt",
    "status": "Kontrolle",
    "csvRowId": 68
  },
  {
    "schoolId": "02Y08",
    "name": "Hermann-Hesse-Gymnasium",
    "lat": 52.453105,
    "lon": 13.3346948,
    "address": "Elisenstr. 3-4, Hermann-Ehlers-Gymnasium, 12169 Berlin",
    "bezirk": "Friedrichshain-Kreuzberg",
    "art": "unbekannt",
    "status": "Kontrolle",
    "csvRowId": 69
  },
  {
    "schoolId": "02G20",
    "name": "Bürgermeister-Herz-Grundschule",
    "lat": 52.4949643,
    "lon": 13.4051463,
    "address": "Wilmsstr. 10, 10961 Berlin",
    "bezirk": "Friedrichshain-Kreuzberg",
    "art": "unbekannt",
    "status": "Kontrolle",
    "csvRowId": 70
  },
  {
    "schoolId": "02Y05",
    "name": "Dathe-Gymnasium",
    "lat": 52.48782689999999,
    "lon": 13.3215387,
    "address": "Gasteiner Str. 11, 10717 Berlin",
    "bezirk": "Friedrichshain-Kreuzberg",
    "art": "unbekannt",
    "status": "Kontrolle",
    "csvRowId": 71
  },
  {
    "schoolId": "02K09",
    "name": "Albrecht-von-Graefe-Schule",
    "lat": 52.4208122,
    "lon": 13.4738713,
    "address": "Wutzkyallee 85, 12353 Berlin",
    "bezirk": "Friedrichshain-Kreuzberg",
    "art": "unbekannt",
    "status": "Kontrolle",
    "csvRowId": 72
  },
  {
    "schoolId": "02G02",
    "name": "Hausburg-Grundschule",
    "lat": 52.5241974,
    "lon": 13.4542842,
    "address": "Hausburgstr. 20, 10249 Berlin",
    "bezirk": "Friedrichshain-Kreuzberg",
    "art": "unbekannt",
    "status": "Kontrolle",
    "csvRowId": 73
  },
  {
    "schoolId": "11K04\n11G18",
    "name": "Gutenberg-Schule\nSchule am Wilhelmsberg",
    "lat": 52.537074,
    "lon": 13.4831566,
    "address": "Sandinostr. 8-10, Gutenberg-Schule, Grundschule am Wilhelmsberg, 13055 Berlin",
    "bezirk": "Lichtenberg",
    "art": "unbekannt",
    "status": "Kontrolle",
    "csvRowId": 74
  },
  {
    "schoolId": "11G17",
    "name": "Brodowin Schule",
    "lat": 52.53696,
    "lon": 13.50028,
    "address": "Liebenwalder Str. 20, 13055 Berlin",
    "bezirk": "Lichtenberg",
    "art": "unbekannt",
    "status": "Kontrolle",
    "csvRowId": 75
  },
  {
    "schoolId": "11G34",
    "name": "Manfred-von-Ardenne-Gymnasium\nSporthalle: Orankesee Schule",
    "lat": 52.54188,
    "lon": 13.4924199,
    "address": "Werneuchener Str. 27, 13055 Berlin",
    "bezirk": "Lichtenberg",
    "art": "unbekannt",
    "status": "Kontrolle",
    "csvRowId": 76
  },
  {
    "schoolId": "11G38",
    "name": "Ehemalige Schule Paul-Junius 69\nSchlaufuchs-Grundschule",
    "lat": 52.5236355,
    "lon": 13.4730412,
    "address": "Paul-Junius-Str. 25, 10369 Berlin",
    "bezirk": "Lichtenberg",
    "art": "unbekannt",
    "status": "Kontrolle",
    "csvRowId": 77
  },
  {
    "schoolId": "11Y02",
    "name": "Johann-Gottfried-Herder-Gymnasium\nJohann-Gottfried-Herder-Schule",
    "lat": 52.5267104,
    "lon": 13.4672447,
    "address": "Franz-Jacob-Str. 8, 10369 Berlin",
    "bezirk": "Lichtenberg",
    "art": "unbekannt",
    "status": "Kontrolle",
    "csvRowId": 78
  },
  {
    "schoolId": "11S02",
    "name": "Schule am Fennpfuhl",
    "lat": 52.52385659999999,
    "lon": 13.4769023,
    "address": "Alfred-Jung-Str. 19, 10369 Berlin",
    "bezirk": "Lichtenberg",
    "art": "unbekannt",
    "status": "Kontrolle",
    "csvRowId": 79
  },
  {
    "schoolId": "/",
    "name": "Sporthalle Saefkow Platz",
    "lat": 52.5298925,
    "lon": 13.4742725,
    "address": "Anton-Saefkow-Platz 5, 10369 Berlin",
    "bezirk": "Lichtenberg",
    "art": "unbekannt",
    "status": "Kontrolle",
    "csvRowId": 80
  },
  {
    "schoolId": "/",
    "name": "Sporthalle Rudolf-Seiffert-Str.",
    "lat": 52.5264682,
    "lon": 13.4719082,
    "address": "Rudolf-Seiffert-Str. 37, 10369 Berlin",
    "bezirk": "Lichtenberg",
    "art": "unbekannt",
    "status": "Kontrolle",
    "csvRowId": 81
  },
  {
    "schoolId": "11S07",
    "name": "Carl-von-Linné-Schule",
    "lat": 52.5218955,
    "lon": 13.4729666,
    "address": "Paul-Junius-Str. 15, Carl-von-Linné-Schule, 10367 Berlin",
    "bezirk": "Lichtenberg",
    "art": "unbekannt",
    "status": "Kontrolle",
    "csvRowId": 82
  },
  {
    "schoolId": "11K01",
    "name": "Alexander-Puschkin-Schule",
    "lat": 52.5082364,
    "lon": 13.5172341,
    "address": "Massower Str. 39, Bürgermeister-Ziethen-Grundschule, 10315 Berlin",
    "bezirk": "Lichtenberg",
    "art": "unbekannt",
    "status": "Kontrolle",
    "csvRowId": 83
  },
  {
    "schoolId": "11G06\nSchule",
    "name": "Sporthalle Gensinger Str.\nAdam-Ries-Grundschule",
    "lat": 52.51232539999999,
    "lon": 13.5258101,
    "address": "Gensinger Str. 56, 10315 Berlin",
    "bezirk": "Lichtenberg",
    "art": "unbekannt",
    "status": "Kontrolle",
    "csvRowId": 84
  },
  {
    "schoolId": "11K01",
    "name": "Sporthalle Franz-Mett-Straße\ns. Alexander-Puschkin-Schule",
    "lat": 52.5042261,
    "lon": 13.5174189,
    "address": "Franz-Mett-Str. 18, 10319 Berlin",
    "bezirk": "Lichtenberg",
    "art": "unbekannt",
    "status": "Kontrolle",
    "csvRowId": 85
  },
  {
    "schoolId": "11G10",
    "name": "Schule im Ostseekarree",
    "lat": 52.5641368,
    "lon": 13.500075,
    "address": "Barther Str. 27, 13051 Berlin",
    "bezirk": "Lichtenberg",
    "art": "unbekannt",
    "status": "Kontrolle",
    "csvRowId": 86
  },
  {
    "schoolId": "11G21",
    "name": "Schule am Faulen See",
    "lat": 52.562789,
    "lon": 13.5136547,
    "address": "Am Breiten Luch 19, 13053 Berlin",
    "bezirk": "Lichtenberg",
    "art": "unbekannt",
    "status": "Kontrolle",
    "csvRowId": 87
  },
  {
    "schoolId": "11S08",
    "name": "Schule am Breiten Luch",
    "lat": 52.562789,
    "lon": 13.5136547,
    "address": "Am Breiten Luch 19, 13053 Berlin",
    "bezirk": "Lichtenberg",
    "art": "unbekannt",
    "status": "Kontrolle",
    "csvRowId": 88
  },
  {
    "schoolId": "11A07",
    "name": "Schul- und Leistungssportzentrum Berlin\n(Werner-Seelenbinder-Schule)\n(Haus der Athleten)",
    "lat": 52.562789,
    "lon": 13.5136547,
    "address": "Am Breiten Luch 19, 13053 Berlin",
    "bezirk": "Lichtenberg",
    "art": "unbekannt",
    "status": "Kontrolle",
    "csvRowId": 89
  },
  {
    "schoolId": "11G12",
    "name": "Lew-Tolstoi-Grundschule\nLew-Tolstoi-Schule",
    "lat": 52.4918,
    "lon": 13.5234299,
    "address": "Römerweg 30, 10318 Berlin",
    "bezirk": "Lichtenberg",
    "art": "unbekannt",
    "status": "Kontrolle",
    "csvRowId": 90
  },
  {
    "schoolId": "11G13",
    "name": "Karlshorster Schule",
    "lat": 52.48925,
    "lon": 13.51994,
    "address": "Lisztstr. 6, 10318 Berlin",
    "bezirk": "Lichtenberg",
    "art": "unbekannt",
    "status": "Kontrolle",
    "csvRowId": 91
  },
  {
    "schoolId": "11K10",
    "name": "Grüner Campus Malchow; Malchower Chaussee 2",
    "lat": 52.5686745,
    "lon": 13.4924131,
    "address": "Doberaner Str. 53, 13051 Berlin",
    "bezirk": "Lichtenberg",
    "art": "unbekannt",
    "status": "Kontrolle",
    "csvRowId": 92
  },
  {
    "schoolId": "11K10",
    "name": "Grüner Campus Malchow; Doberaner Str. 58",
    "lat": 52.5686745,
    "lon": 13.4924131,
    "address": "Doberaner Str. 53, 13051 Berlin",
    "bezirk": "Lichtenberg",
    "art": "unbekannt",
    "status": "Kontrolle",
    "csvRowId": 93
  },
  {
    "schoolId": "11G25",
    "name": "Schule am Wäldchen",
    "lat": 52.5686106,
    "lon": 13.5061829,
    "address": "Wustrower Str. 28, Schule am Wäldchen, 13051 Berlin",
    "bezirk": "Lichtenberg",
    "art": "unbekannt",
    "status": "Kontrolle",
    "csvRowId": 94
  },
  {
    "schoolId": "11K07",
    "name": "Vincent-van-Gogh-Schule",
    "lat": 52.5672734,
    "lon": 13.5074587,
    "address": "Wustrower Str. 26, Vincent-van-Gogh-Schule, 13051 Berlin",
    "bezirk": "Lichtenberg",
    "art": "unbekannt",
    "status": "Kontrolle",
    "csvRowId": 95
  },
  {
    "schoolId": "11Kn11",
    "name": "Sporthalle Klüter Str. 36, Klüter Str. 42\nGemeinschaftsschule Klützer Straße",
    "lat": 52.568708,
    "lon": 13.5306993,
    "address": "Wartiner Str. 6, 13057 Berlin",
    "bezirk": "Lichtenberg",
    "art": "unbekannt",
    "status": "Kontrolle",
    "csvRowId": 96
  },
  {
    "schoolId": "11G16",
    "name": "Schule an der Victoriastadt",
    "lat": 52.5097947,
    "lon": 13.5008076,
    "address": "Wönnichstr. 7, Robinson-Schule, 10317 Berlin",
    "bezirk": "Lichtenberg",
    "art": "unbekannt",
    "status": "Kontrolle",
    "csvRowId": 97
  },
  {
    "schoolId": "11G23",
    "name": "Friedrichsfelder Grundschule\nFriedrichsfelder Schule",
    "lat": 52.51232539999999,
    "lon": 13.5258101,
    "address": "Gensinger Str. 56, 10315 Berlin",
    "bezirk": "Lichtenberg",
    "art": "unbekannt",
    "status": "Kontrolle",
    "csvRowId": 98
  },
  {
    "schoolId": "11S06",
    "name": "Selma-Lagerlöf-Grundschule",
    "lat": 52.5163599,
    "lon": 13.501286,
    "address": "Rüdigerstr. 76, 10365 Berlin",
    "bezirk": "Lichtenberg",
    "art": "unbekannt",
    "status": "Kontrolle",
    "csvRowId": 99
  },
  {
    "schoolId": "/",
    "name": "Reaktivierung ISS Paul Junius Str. 25-27",
    "lat": 52.5236355,
    "lon": 13.4730412,
    "address": "Paul-Junius-Str. 25, 10369 Berlin",
    "bezirk": "Lichtenberg",
    "art": "unbekannt",
    "status": "Kontrolle",
    "csvRowId": 100
  },
  {
    "schoolId": "11G36",
    "name": "Ehemalige Schule Wartiner Str. 6\nPhönix-Grundschule",
    "lat": 52.568708,
    "lon": 13.5306993,
    "address": "Wartiner Str. 6, 13057 Berlin",
    "bezirk": "Lichtenberg",
    "art": "unbekannt",
    "status": "Kontrolle",
    "csvRowId": 101
  },
  {
    "schoolId": "11G05",
    "name": "Schule auf dem lichten Berg",
    "lat": 52.51691950000001,
    "lon": 13.4942948,
    "address": "Atzpodienstr. 19, Schule auf dem lichten Berg, 10365 Berlin",
    "bezirk": "Lichtenberg",
    "art": "unbekannt",
    "status": "Kontrolle",
    "csvRowId": 102
  },
  {
    "schoolId": "11G31\n11K12",
    "name": "Neue Schule aus vorhandenen Gebäuden (Kniese-Schule, Schmetterlings-Schule): Dolgenseestr. 60\nPaul-und-Charlotte-Kniese-Schule: Erich-Kurz-Str. 6-10",
    "lat": 52.5236355,
    "lon": 13.4730412,
    "address": "Paul-Junius-Str. 25, 10369 Berlin",
    "bezirk": "Lichtenberg",
    "art": "unbekannt",
    "status": "Kontrolle",
    "csvRowId": 103
  },
  {
    "schoolId": "11S05",
    "name": "Schule am Grünen Grund",
    "lat": 52.51691950000001,
    "lon": 13.4942948,
    "address": "Atzpodienstr. 19, Schule auf dem lichten Berg, 10365 Berlin",
    "bezirk": "Lichtenberg",
    "art": "unbekannt",
    "status": "Kontrolle",
    "csvRowId": 104
  },
  {
    "schoolId": "11S12",
    "name": "Nils-Holgersson-Schule",
    "lat": 52.53405,
    "lon": 13.47214,
    "address": "Otto-Marquardt-Str. 12, 10369 Berlin",
    "bezirk": "Lichtenberg",
    "art": "unbekannt",
    "status": "Kontrolle",
    "csvRowId": 105
  },
  {
    "schoolId": "11G08",
    "name": "Robinson Grundschule\nRobinson-Schule",
    "lat": 52.5097947,
    "lon": 13.5008076,
    "address": "Wönnichstr. 7, Robinson-Schule, 10317 Berlin",
    "bezirk": "Lichtenberg",
    "art": "unbekannt",
    "status": "Kontrolle",
    "csvRowId": 106
  },
  {
    "schoolId": "11G09",
    "name": "Bürgermeister-Ziethen-Grundschule",
    "lat": 52.5082364,
    "lon": 13.5172341,
    "address": "Massower Str. 39, Bürgermeister-Ziethen-Grundschule, 10315 Berlin",
    "bezirk": "Lichtenberg",
    "art": "unbekannt",
    "status": "Kontrolle",
    "csvRowId": 107
  },
  {
    "schoolId": "11Y05",
    "name": "Hans-und-Hilde-Coppi-Oberschule",
    "lat": 52.4918,
    "lon": 13.5234299,
    "address": "Römerweg 30, 10318 Berlin",
    "bezirk": "Lichtenberg",
    "art": "unbekannt",
    "status": "Kontrolle",
    "csvRowId": 108
  },
  {
    "schoolId": "11G11",
    "name": "Bernhard-Grzimek-Grundschule",
    "lat": 52.49572,
    "lon": 13.51176,
    "address": "Sewanstr. 184, 10319 Berlin",
    "bezirk": "Lichtenberg",
    "art": "unbekannt",
    "status": "Kontrolle",
    "csvRowId": 109
  },
  {
    "schoolId": "11G14",
    "name": "Richard-Wagner-Grundschule\nRichard-Wagner-Schule",
    "lat": 52.4918,
    "lon": 13.5234299,
    "address": "Römerweg 30, 10318 Berlin",
    "bezirk": "Lichtenberg",
    "art": "unbekannt",
    "status": "Kontrolle",
    "csvRowId": 110
  },
  {
    "schoolId": "11K11",
    "name": "Paul-Schmidt-Schule",
    "lat": 52.562789,
    "lon": 13.5136547,
    "address": "Am Breiten Luch 19, 13053 Berlin",
    "bezirk": "Lichtenberg",
    "art": "unbekannt",
    "status": "Kontrolle",
    "csvRowId": 111
  },
  {
    "schoolId": "11XD02",
    "name": "Hans-Rosenthal-Grundschule\nDrehscheibe Standort Bernhard-Bästlein-Straße",
    "lat": 52.531897,
    "lon": 13.4800518,
    "address": "Bernhard-Bästlein-Str. 56, Hans-Rosenthal-Schule, 10367 Berlin",
    "bezirk": "Lichtenberg",
    "art": "unbekannt",
    "status": "Kontrolle",
    "csvRowId": 112
  },
  {
    "schoolId": "11K09",
    "name": "Philipp-Reis-Schule\nPhilipp-Reis-Oberschule\nPhilipp-Reis-Sekundarschule",
    "lat": 52.5395715,
    "lon": 13.4958625,
    "address": "Werneuchener Str. 15, 13055 Berlin",
    "bezirk": "Lichtenberg",
    "art": "unbekannt",
    "status": "Kontrolle",
    "csvRowId": 113
  },
  {
    "schoolId": "11G02",
    "name": "Grundschule am Roederplatz",
    "lat": 52.528938,
    "lon": 13.4821061,
    "address": "Bernhard-Bästlein-Str. 22, Grundschule am Roederplatz, 10367 Berlin",
    "bezirk": "Lichtenberg",
    "art": "unbekannt",
    "status": "Kontrolle",
    "csvRowId": 114
  },
  {
    "schoolId": "11G07",
    "name": "Hermann-Gmeiner-Grundschule",
    "lat": 52.5101,
    "lon": 13.48594,
    "address": "Harnackstr. 17, 10365 Berlin",
    "bezirk": "Lichtenberg",
    "art": "unbekannt",
    "status": "Kontrolle",
    "csvRowId": 115
  },
  {
    "schoolId": "11Y11",
    "name": "Immanuel-Kant-Gymnasium",
    "lat": 52.5018288,
    "lon": 13.4900872,
    "address": "Lückstr. 60, 10317 Berlin",
    "bezirk": "Lichtenberg",
    "art": "unbekannt",
    "status": "Kontrolle",
    "csvRowId": 116
  },
  {
    "schoolId": "/",
    "name": "Sporthalle Hagenstraße",
    "lat": 52.5175299,
    "lon": 13.5008698,
    "address": "Hagenstr. 26, 10365 Berlin",
    "bezirk": "Lichtenberg",
    "art": "unbekannt",
    "status": "Kontrolle",
    "csvRowId": 117
  },
  {
    "schoolId": "11S06",
    "name": "Selma-Lagerlöf-Schule / 33. Grundschule",
    "lat": 52.5163599,
    "lon": 13.501286,
    "address": "Rüdigerstr. 76, 10365 Berlin",
    "bezirk": "Lichtenberg",
    "art": "unbekannt",
    "status": "Kontrolle",
    "csvRowId": 118
  },
  {
    "schoolId": "11K02",
    "name": "Mildred-Harnack-Schule",
    "lat": 52.5112818,
    "lon": 13.4814427,
    "address": "Schulze-Boysen-Str. 12, 10365 Berlin",
    "bezirk": "Lichtenberg",
    "art": "unbekannt",
    "status": "Kontrolle",
    "csvRowId": 119
  },
  {
    "schoolId": "/",
    "name": "Welse-Sporthalle",
    "lat": 52.5655651,
    "lon": 13.525477,
    "address": "Welsestr. 50, 13057 Berlin",
    "bezirk": "Lichtenberg",
    "art": "unbekannt",
    "status": "Kontrolle",
    "csvRowId": 120
  },
  {
    "schoolId": "11Y11",
    "name": "Immanuel-Kant-Gymnasium",
    "lat": 52.5018288,
    "lon": 13.4900872,
    "address": "Lückstr. 60, 10317 Berlin",
    "bezirk": "Lichtenberg",
    "art": "unbekannt",
    "status": "Kontrolle",
    "csvRowId": 121
  },
  {
    "schoolId": "11G26",
    "name": "Randow-Schule",
    "lat": 52.5669419,
    "lon": 13.5278633,
    "address": "Randowstr. 3/Welsestr. 32, 13057 Berlin",
    "bezirk": "Lichtenberg",
    "art": "unbekannt",
    "status": "Kontrolle",
    "csvRowId": 122
  },
  {
    "schoolId": "11K06",
    "name": "Schule am Rathaus",
    "lat": 52.528938,
    "lon": 13.4821061,
    "address": "Bernhard-Bästlein-Str. 22, Grundschule am Roederplatz, 10367 Berlin",
    "bezirk": "Lichtenberg",
    "art": "unbekannt",
    "status": "Kontrolle",
    "csvRowId": 123
  },
  {
    "schoolId": "11Kn11",
    "name": "Gemeinschaftsschule Klützer Straße",
    "lat": 52.57023,
    "lon": 13.51377,
    "address": "Klützer Str. 36, 13059 Berlin",
    "bezirk": "Lichtenberg",
    "art": "unbekannt",
    "status": "Kontrolle",
    "csvRowId": 124
  },
  {
    "schoolId": "11K13",
    "name": "May-Ayim-Schule",
    "lat": 52.52385659999999,
    "lon": 13.4769023,
    "address": "Alfred-Jung-Str. 19, 10369 Berlin",
    "bezirk": "Lichtenberg",
    "art": "unbekannt",
    "status": "Kontrolle",
    "csvRowId": 125
  },
  {
    "schoolId": "11K08",
    "name": "Schule-am-Tierpark",
    "lat": 52.5042261,
    "lon": 13.5174189,
    "address": "Franz-Mett-Str. 18, 10319 Berlin",
    "bezirk": "Lichtenberg",
    "art": "unbekannt",
    "status": "Kontrolle",
    "csvRowId": 126
  },
  {
    "schoolId": "10G16",
    "name": "Grundschule am Fuchsberg",
    "lat": 52.52385659999999,
    "lon": 13.4769023,
    "address": "Alfred-Jung-Str. 19, 10369 Berlin",
    "bezirk": "Marzahn-Hellersdorf",
    "art": "unbekannt",
    "status": "Kontrolle",
    "csvRowId": 127
  },
  {
    "schoolId": "10Y11",
    "name": "Melanchthon-Gymnasium",
    "lat": 52.52892,
    "lon": 13.46817,
    "address": "Franz-Jacob-Str. 14, 10369 Berlin",
    "bezirk": "Marzahn-Hellersdorf",
    "art": "unbekannt",
    "status": "Kontrolle",
    "csvRowId": 128
  },
  {
    "schoolId": "10G28",
    "name": "Grundschule am Hollerbusch",
    "lat": 52.5212191,
    "lon": 13.5806862,
    "address": "Teterower Ring 79, 12619 Berlin",
    "bezirk": "Marzahn-Hellersdorf",
    "art": "unbekannt",
    "status": "Kontrolle",
    "csvRowId": 129
  },
  {
    "schoolId": "10G25",
    "name": "Grundschule am Schleipfuhl",
    "lat": 52.528938,
    "lon": 13.4821061,
    "address": "Bernhard-Bästlein-Str. 22, Grundschule am Roederplatz, 10367 Berlin",
    "bezirk": "Marzahn-Hellersdorf",
    "art": "unbekannt",
    "status": "Kontrolle",
    "csvRowId": 130
  },
  {
    "schoolId": "10G17",
    "name": "Beatrix-Potter-Grundschule",
    "lat": 52.55575,
    "lon": 13.3337501,
    "address": "Afrikanische Str. 123, 13351 Berlin",
    "bezirk": "Marzahn-Hellersdorf",
    "art": "unbekannt",
    "status": "Kontrolle",
    "csvRowId": 131
  },
  {
    "schoolId": "10G18",
    "name": "Pusteblume-Grundschule",
    "lat": 52.59160139999999,
    "lon": 13.3760807,
    "address": "Kastanienallee 59, 13158 Berlin",
    "bezirk": "Marzahn-Hellersdorf",
    "art": "unbekannt",
    "status": "Kontrolle",
    "csvRowId": 132
  },
  {
    "schoolId": "10G19",
    "name": "Bücherwurm-Schule am Weiher",
    "lat": 52.52385659999999,
    "lon": 13.4769023,
    "address": "Alfred-Jung-Str. 19, 10369 Berlin",
    "bezirk": "Marzahn-Hellersdorf",
    "art": "unbekannt",
    "status": "Kontrolle",
    "csvRowId": 133
  },
  {
    "schoolId": "10K10",
    "name": "Wolfgang-Amadeus-Mozart-Schule",
    "lat": 52.574088,
    "lon": 13.444867,
    "address": "Blankenburger Str. 23, Schule , 13156 Berlin",
    "bezirk": "Marzahn-Hellersdorf",
    "art": "unbekannt",
    "status": "Kontrolle",
    "csvRowId": 134
  },
  {
    "schoolId": "10G29",
    "name": "Grundschule An Der Wuhle",
    "lat": 52.5212191,
    "lon": 13.5806862,
    "address": "Teterower Ring 79, 12619 Berlin",
    "bezirk": "Marzahn-Hellersdorf",
    "art": "unbekannt",
    "status": "Kontrolle",
    "csvRowId": 135
  },
  {
    "schoolId": "10G33",
    "name": "Ulmen-Grundschule",
    "lat": 52.4329046,
    "lon": 13.3073542,
    "address": "Drakestr. 79, 12205 Berlin",
    "bezirk": "Marzahn-Hellersdorf",
    "art": "unbekannt",
    "status": "Kontrolle",
    "csvRowId": 136
  },
  {
    "schoolId": "10G31",
    "name": "Franz-Carl-Achard-Grundschule",
    "lat": 52.4749065,
    "lon": 13.3206945,
    "address": "Offenbacher Str. 25, 14197 Berlin",
    "bezirk": "Marzahn-Hellersdorf",
    "art": "unbekannt",
    "status": "Kontrolle",
    "csvRowId": 137
  },
  {
    "schoolId": "10G30",
    "name": "Mahlsdorfer Grundschule",
    "lat": 52.52204649999999,
    "lon": 13.628978,
    "address": "Feldrain 47, 12623 Berlin",
    "bezirk": "Marzahn-Hellersdorf",
    "art": "unbekannt",
    "status": "Kontrolle",
    "csvRowId": 138
  },
  {
    "schoolId": "10G26",
    "name": "Friedrich-Schiller-Grundschule",
    "lat": 52.52204649999999,
    "lon": 13.628978,
    "address": "Feldrain 47, 12623 Berlin",
    "bezirk": "Marzahn-Hellersdorf",
    "art": "unbekannt",
    "status": "Kontrolle",
    "csvRowId": 139
  },
  {
    "schoolId": "10A04",
    "name": "Victor-Klemperer-Kolleg",
    "lat": 52.5395715,
    "lon": 13.4958625,
    "address": "Werneuchener Str. 15, 13055 Berlin",
    "bezirk": "Marzahn-Hellersdorf",
    "art": "unbekannt",
    "status": "Kontrolle",
    "csvRowId": 140
  },
  {
    "schoolId": "10S04",
    "name": "Wilhelm-Busch-Grundschule\nSchule am Pappelhof",
    "lat": 52.537074,
    "lon": 13.4831566,
    "address": "Sandinostr. 8-10, Gutenberg-Schule, Grundschule am Wilhelmsberg, 13055 Berlin",
    "bezirk": "Marzahn-Hellersdorf",
    "art": "unbekannt",
    "status": "Kontrolle",
    "csvRowId": 141
  },
  {
    "schoolId": "10G09",
    "name": "Grundschule am Bürgerpark",
    "lat": 52.528938,
    "lon": 13.4821061,
    "address": "Bernhard-Bästlein-Str. 22, Grundschule am Roederplatz, 10367 Berlin",
    "bezirk": "Marzahn-Hellersdorf",
    "art": "unbekannt",
    "status": "Kontrolle",
    "csvRowId": 142
  },
  {
    "schoolId": "10G10",
    "name": "Peter-Pan-Grundschule",
    "lat": 52.55575,
    "lon": 13.3337501,
    "address": "Afrikanische Str. 123, 13351 Berlin",
    "bezirk": "Marzahn-Hellersdorf",
    "art": "unbekannt",
    "status": "Kontrolle",
    "csvRowId": 143
  },
  {
    "schoolId": "/",
    "name": "Haus des Sports\nSportstätte, keine Schule",
    "lat": 52.53976,
    "lon": 13.5657001,
    "address": "Kienbergstr. 59, 12685 Berlin",
    "bezirk": "Marzahn-Hellersdorf",
    "art": "unbekannt",
    "status": "Kontrolle",
    "csvRowId": 144
  },
  {
    "schoolId": "10G01",
    "name": "Paavo-Nurmi-Grundschule",
    "lat": 52.5379679,
    "lon": 13.3916307,
    "address": "Strelitzer Str. 42, Gustav-Falke-Grundschule, 13355 Berlin",
    "bezirk": "Marzahn-Hellersdorf",
    "art": "unbekannt",
    "status": "Kontrolle",
    "csvRowId": 145
  },
  {
    "schoolId": "10G03",
    "name": "Selma-Lagerlöf-Grundschule",
    "lat": 52.5163599,
    "lon": 13.501286,
    "address": "Rüdigerstr. 76, 10365 Berlin",
    "bezirk": "Marzahn-Hellersdorf",
    "art": "unbekannt",
    "status": "Kontrolle",
    "csvRowId": 146
  },
  {
    "schoolId": "10K11",
    "name": "Marcana-Schule",
    "lat": 52.5042261,
    "lon": 13.5174189,
    "address": "Franz-Mett-Str. 18, 10319 Berlin",
    "bezirk": "Marzahn-Hellersdorf",
    "art": "unbekannt",
    "status": "Kontrolle",
    "csvRowId": 147
  },
  {
    "schoolId": "10G12",
    "name": "Grundschule an der Geißenweide",
    "lat": 52.53976,
    "lon": 13.5657001,
    "address": "Kienbergstr. 59, 12685 Berlin",
    "bezirk": "Marzahn-Hellersdorf",
    "art": "unbekannt",
    "status": "Kontrolle",
    "csvRowId": 148
  },
  {
    "schoolId": "10K09",
    "name": "Konrad-Wachsmann-Schule",
    "lat": 52.52385659999999,
    "lon": 13.4769023,
    "address": "Alfred-Jung-Str. 19, 10369 Berlin",
    "bezirk": "Marzahn-Hellersdorf",
    "art": "unbekannt",
    "status": "Kontrolle",
    "csvRowId": 149
  },
  {
    "schoolId": "10Y01",
    "name": "Tagore-Gymnasium",
    "lat": 52.52892,
    "lon": 13.46817,
    "address": "Franz-Jacob-Str. 14, 10369 Berlin",
    "bezirk": "Marzahn-Hellersdorf",
    "art": "unbekannt",
    "status": "Kontrolle",
    "csvRowId": 150
  },
  {
    "schoolId": "10Y02",
    "name": "Otto-Nagel-Gymnasium",
    "lat": 52.48782689999999,
    "lon": 13.3215387,
    "address": "Gasteiner Str. 11, 10717 Berlin",
    "bezirk": "Marzahn-Hellersdorf",
    "art": "unbekannt",
    "status": "Kontrolle",
    "csvRowId": 151
  },
  {
    "schoolId": "10Y03",
    "name": "Wilhelm-von-Siemens-Gymnasium",
    "lat": 52.54062010000001,
    "lon": 13.2727972,
    "address": "Jungfernheideweg 33-48, Robert-Reinick-Grundschule, 13629 Berlin",
    "bezirk": "Marzahn-Hellersdorf",
    "art": "unbekannt",
    "status": "Kontrolle",
    "csvRowId": 152
  },
  {
    "schoolId": "10K02",
    "name": "Ernst-Haeckel-Schule",
    "lat": 52.52385659999999,
    "lon": 13.4769023,
    "address": "Alfred-Jung-Str. 19, 10369 Berlin",
    "bezirk": "Marzahn-Hellersdorf",
    "art": "unbekannt",
    "status": "Kontrolle",
    "csvRowId": 153
  },
  {
    "schoolId": "10G14",
    "name": "Grundschule unter dem Regenbogen",
    "lat": 52.4404192,
    "lon": 13.2903455,
    "address": "Curtiusstr. 37, 12205 Berlin",
    "bezirk": "Marzahn-Hellersdorf",
    "art": "unbekannt",
    "status": "Kontrolle",
    "csvRowId": 154
  },
  {
    "schoolId": "10G11",
    "name": "Grundschule an der Mühle",
    "lat": 52.53976,
    "lon": 13.5657001,
    "address": "Kienbergstr. 59, 12685 Berlin",
    "bezirk": "Marzahn-Hellersdorf",
    "art": "unbekannt",
    "status": "Kontrolle",
    "csvRowId": 155
  },
  {
    "schoolId": "10K05",
    "name": "Jean-Piaget-Schule",
    "lat": 52.52385659999999,
    "lon": 13.4769023,
    "address": "Alfred-Jung-Str. 19, 10369 Berlin",
    "bezirk": "Marzahn-Hellersdorf",
    "art": "unbekannt",
    "status": "Kontrolle",
    "csvRowId": 156
  },
  {
    "schoolId": "10S08",
    "name": "Schule am Mummelsoll",
    "lat": 52.52385659999999,
    "lon": 13.4769023,
    "address": "Alfred-Jung-Str. 19, 10369 Berlin",
    "bezirk": "Marzahn-Hellersdorf",
    "art": "unbekannt",
    "status": "Kontrolle",
    "csvRowId": 157
  },
  {
    "schoolId": "01G25",
    "name": "Rudolf-Wissell-Grundschule",
    "lat": 52.5489669,
    "lon": 13.3735403,
    "address": "Orthstr. 1, Albert-Gutzmann-Grundschule, 13357 Berlin",
    "bezirk": "Mitte",
    "art": "unbekannt",
    "status": "Kontrolle",
    "csvRowId": 158
  },
  {
    "schoolId": "01G43",
    "name": "Albert-Gutzmann-Schule",
    "lat": 52.5489669,
    "lon": 13.3735403,
    "address": "Orthstr. 1, Albert-Gutzmann-Grundschule, 13357 Berlin",
    "bezirk": "Mitte",
    "art": "unbekannt",
    "status": "Kontrolle",
    "csvRowId": 159
  },
  {
    "schoolId": "01G18",
    "name": "Carl-Bolle-Grundschule",
    "lat": 52.502195,
    "lon": 13.3192063,
    "address": "Bleibtreustr. 20, 10623 Berlin",
    "bezirk": "Mitte",
    "art": "unbekannt",
    "status": "Kontrolle",
    "csvRowId": 160
  },
  {
    "schoolId": "01G11",
    "name": "Kurt-Tucholsky-Grundschule",
    "lat": 52.5302622,
    "lon": 13.3530285,
    "address": "Rathenower Str. 18, Kurt-Tucholsky-Grundschule, 10559 Berlin",
    "bezirk": "Mitte",
    "art": "unbekannt",
    "status": "Kontrolle",
    "csvRowId": 161
  },
  {
    "schoolId": "01G47",
    "name": "Miriam-Makeba-Grundschule",
    "lat": 52.5223198,
    "lon": 13.3314459,
    "address": "Zinzendorfstr. 15, 10555 Berlin",
    "bezirk": "Mitte",
    "art": "unbekannt",
    "status": "Kontrolle",
    "csvRowId": 162
  },
  {
    "schoolId": "01K10",
    "name": "Theodor-Heuss-Gemeinschaftsschule",
    "lat": 52.5302622,
    "lon": 13.3530285,
    "address": "Rathenower Str. 18, Kurt-Tucholsky-Grundschule, 10559 Berlin",
    "bezirk": "Mitte",
    "art": "unbekannt",
    "status": "Kontrolle",
    "csvRowId": 163
  },
  {
    "schoolId": "01Y07",
    "name": "Französisches Gymnasium",
    "lat": 52.52892,
    "lon": 13.46817,
    "address": "Franz-Jacob-Str. 14, 10369 Berlin",
    "bezirk": "Mitte",
    "art": "unbekannt",
    "status": "Kontrolle",
    "csvRowId": 164
  },
  {
    "schoolId": "S\n01G37",
    "name": "Heinrich-Seidel-Grundschule",
    "lat": 52.5379679,
    "lon": 13.3916307,
    "address": "Strelitzer Str. 42, Gustav-Falke-Grundschule, 13355 Berlin",
    "bezirk": "Mitte",
    "art": "unbekannt",
    "status": "Kontrolle",
    "csvRowId": 165
  },
  {
    "schoolId": "01G40",
    "name": "Möwensee-Grundschule",
    "lat": 52.55575,
    "lon": 13.3337501,
    "address": "Afrikanische Str. 123, 13351 Berlin",
    "bezirk": "Mitte",
    "art": "unbekannt",
    "status": "Kontrolle",
    "csvRowId": 166
  },
  {
    "schoolId": "01G45",
    "name": "Leo-Lionni-Grundschule",
    "lat": 52.54446249999999,
    "lon": 13.3613303,
    "address": "Müllerstr. 158, Leo-Lionni-Grundschule, 13353 Berlin",
    "bezirk": "Mitte",
    "art": "unbekannt",
    "status": "Kontrolle",
    "csvRowId": 167
  },
  {
    "schoolId": "01K03",
    "name": "Ernst-Reuter-Oberschule",
    "lat": 52.5379679,
    "lon": 13.3916307,
    "address": "Strelitzer Str. 42, Gustav-Falke-Grundschule, 13355 Berlin",
    "bezirk": "Mitte",
    "art": "unbekannt",
    "status": "Kontrolle",
    "csvRowId": 168
  },
  {
    "schoolId": "01K08",
    "name": "Schule am Schillerpark",
    "lat": 52.55717139999999,
    "lon": 13.3571942,
    "address": "Ungarnstr. 75, Gottfried-Röhl-Grundschule, 13349 Berlin",
    "bezirk": "Mitte",
    "art": "unbekannt",
    "status": "Kontrolle",
    "csvRowId": 169
  },
  {
    "schoolId": "01Y08",
    "name": "Lessing-Gymnasium",
    "lat": 52.5564684,
    "lon": 13.3423454,
    "address": "Schöningstr. 24, 13349 Berlin",
    "bezirk": "Mitte",
    "art": "unbekannt",
    "status": "Kontrolle",
    "csvRowId": 170
  },
  {
    "schoolId": "01G38",
    "name": "Gustav-Falke-Grundschule",
    "lat": 52.5379679,
    "lon": 13.3916307,
    "address": "Strelitzer Str. 42, Gustav-Falke-Grundschule, 13355 Berlin",
    "bezirk": "Mitte",
    "art": "unbekannt",
    "status": "Kontrolle",
    "csvRowId": 171
  },
  {
    "schoolId": "01G29",
    "name": "Wilhelm-Hauff-Grundschule",
    "lat": 52.5573263,
    "lon": 13.3836454,
    "address": "Gotenburger Str. 7, 13359 Berlin",
    "bezirk": "Mitte",
    "art": "unbekannt",
    "status": "Kontrolle",
    "csvRowId": 172
  },
  {
    "schoolId": "01K06",
    "name": "Herbert-Hoover-Schule",
    "lat": 52.5462965,
    "lon": 13.3734956,
    "address": "Pankstr. 18, 13357 Berlin",
    "bezirk": "Mitte",
    "art": "unbekannt",
    "status": "Kontrolle",
    "csvRowId": 173
  },
  {
    "schoolId": "01G32",
    "name": "Carl-Kraemer-Grundschule",
    "lat": 52.5611361,
    "lon": 13.3827129,
    "address": "Zechliner Str. 4, 13359 Berlin",
    "bezirk": "Mitte",
    "art": "unbekannt",
    "status": "Kontrolle",
    "csvRowId": 174
  },
  {
    "schoolId": "?",
    "name": "Reaktivierung Grundschule",
    "lat": 52.5573263,
    "lon": 13.3836454,
    "address": "Gotenburger Str. 7, 13359 Berlin",
    "bezirk": "Mitte",
    "art": "unbekannt",
    "status": "Kontrolle",
    "csvRowId": 175
  },
  {
    "schoolId": "01Kn02",
    "name": "Neubau ISS",
    "lat": 52.5490423,
    "lon": 13.3754545,
    "address": "Pankstr. 70, 13357 Berlin",
    "bezirk": "Mitte",
    "art": "unbekannt",
    "status": "Kontrolle",
    "csvRowId": 176
  },
  {
    "schoolId": "01S01",
    "name": "Schule am Zillepark",
    "lat": 52.52385659999999,
    "lon": 13.4769023,
    "address": "Alfred-Jung-Str. 19, 10369 Berlin",
    "bezirk": "Mitte",
    "art": "unbekannt",
    "status": "Kontrolle",
    "csvRowId": 177
  },
  {
    "schoolId": "01G28",
    "name": "Brüder-Grimm-Grundschule",
    "lat": 52.5384419,
    "lon": 13.3616286,
    "address": "Tegeler Str. 2, 13353 Berlin",
    "bezirk": "Mitte",
    "art": "unbekannt",
    "status": "Kontrolle",
    "csvRowId": 178
  },
  {
    "schoolId": "01K04",
    "name": "Heinrich-von-Stephan-Schule",
    "lat": 52.4941938,
    "lon": 13.3987461,
    "address": "Blücherstr. 23, 10961 Berlin",
    "bezirk": "Mitte",
    "art": "unbekannt",
    "status": "Kontrolle",
    "csvRowId": 179
  },
  {
    "schoolId": "01S07",
    "name": "Umbau Schulstandort Berolinastr., Charlotte-Pfeffer-Schule",
    "lat": 52.52385659999999,
    "lon": 13.4769023,
    "address": "Alfred-Jung-Str. 19, 10369 Berlin",
    "bezirk": "Mitte",
    "art": "unbekannt",
    "status": "Kontrolle",
    "csvRowId": 180
  },
  {
    "schoolId": "01G27",
    "name": "Gesundbrunnen-Grundschule",
    "lat": 52.5489669,
    "lon": 13.3735403,
    "address": "Orthstr. 1, Albert-Gutzmann-Grundschule, 13357 Berlin",
    "bezirk": "Mitte",
    "art": "unbekannt",
    "status": "Kontrolle",
    "csvRowId": 181
  },
  {
    "schoolId": "01G24",
    "name": "Gottfried-Röhl-Grundschule",
    "lat": 52.55717139999999,
    "lon": 13.3571942,
    "address": "Ungarnstr. 75, Gottfried-Röhl-Grundschule, 13349 Berlin",
    "bezirk": "Mitte",
    "art": "unbekannt",
    "status": "Kontrolle",
    "csvRowId": 182
  },
  {
    "schoolId": "01G42",
    "name": "Anna-Lindh-Grundschule",
    "lat": 52.5506949,
    "lon": 13.3417994,
    "address": "Guineastr. 17, Anna-Lindh-Grundschule, 13351 Berlin",
    "bezirk": "Mitte",
    "art": "unbekannt",
    "status": "Kontrolle",
    "csvRowId": 183
  },
  {
    "schoolId": "01G36",
    "name": "Andersen-Grundschule",
    "lat": 52.56553,
    "lon": 13.3889099,
    "address": "Kattegatstr. 26, 13359 Berlin",
    "bezirk": "Mitte",
    "art": "unbekannt",
    "status": "Kontrolle",
    "csvRowId": 184
  },
  {
    "schoolId": "01G02",
    "name": "Papageno-Grundschule",
    "lat": 52.4786034,
    "lon": 13.3764696,
    "address": "Boelckestr. 58, 12101 Berlin",
    "bezirk": "Mitte",
    "art": "unbekannt",
    "status": "Kontrolle",
    "csvRowId": 185
  },
  {
    "schoolId": "01G07",
    "name": "GutsMuths-Grundschule",
    "lat": 52.55575,
    "lon": 13.3337501,
    "address": "Afrikanische Str. 123, 13351 Berlin",
    "bezirk": "Mitte",
    "art": "unbekannt",
    "status": "Kontrolle",
    "csvRowId": 186
  },
  {
    "schoolId": "08G29",
    "name": "Wetzlar-Grundschule",
    "lat": 52.429664,
    "lon": 13.4529557,
    "address": "Johannisthaler Chaussee 317, 12351 Berlin",
    "bezirk": "Neukölln",
    "art": "unbekannt",
    "status": "Kontrolle",
    "csvRowId": 187
  },
  {
    "schoolId": "08K11",
    "name": "Alfred-Nobel-Schule",
    "lat": 52.44932859999999,
    "lon": 13.4368455,
    "address": "Britzer Damm 151, 12347 Berlin",
    "bezirk": "Neukölln",
    "art": "unbekannt",
    "status": "Kontrolle",
    "csvRowId": 188
  },
  {
    "schoolId": "08G24",
    "name": "Schule am Teltowkanal",
    "lat": 52.459286,
    "lon": 13.4409214,
    "address": "Rungiusstr. 46, 12347 Berlin",
    "bezirk": "Neukölln",
    "art": "unbekannt",
    "status": "Kontrolle",
    "csvRowId": 189
  },
  {
    "schoolId": "08G13",
    "name": "Bruno-Taut-Schule",
    "lat": 52.44865,
    "lon": 13.44389,
    "address": "Onkel-Bräsig-Straße 76, 12359 Berlin",
    "bezirk": "Neukölln",
    "art": "unbekannt",
    "status": "Kontrolle",
    "csvRowId": 190
  },
  {
    "schoolId": "08G30",
    "name": "Schule am Sandsteinweg",
    "lat": 52.41829,
    "lon": 13.40469,
    "address": "Hornblendeweg 2, Schule am Sandsteinweg, 12349 Berlin",
    "bezirk": "Neukölln",
    "art": "unbekannt",
    "status": "Kontrolle",
    "csvRowId": 191
  },
  {
    "schoolId": "08S07",
    "name": "Schule am Bienwaldring",
    "lat": 52.41829,
    "lon": 13.40469,
    "address": "Hornblendeweg 2, Schule am Sandsteinweg, 12349 Berlin",
    "bezirk": "Neukölln",
    "art": "unbekannt",
    "status": "Kontrolle",
    "csvRowId": 192
  },
  {
    "schoolId": "08G34",
    "name": "Lisa-Tetzner-Schule",
    "lat": 52.4226226,
    "lon": 13.4453074,
    "address": "Hasenhegerweg 12, Lisa-Tetzner-Schule, 12353 Berlin",
    "bezirk": "Neukölln",
    "art": "unbekannt",
    "status": "Kontrolle",
    "csvRowId": 193
  },
  {
    "schoolId": "08G26",
    "name": "Christoph-Ruden-Schule",
    "lat": 52.4208258,
    "lon": 13.435264,
    "address": "An den Achterhöfen 13, Christoph-Ruden-Grundschule, 12349 Berlin",
    "bezirk": "Neukölln",
    "art": "unbekannt",
    "status": "Kontrolle",
    "csvRowId": 194
  },
  {
    "schoolId": "08G31",
    "name": "Janusz-Korczak-Schule",
    "lat": 52.4226226,
    "lon": 13.4453074,
    "address": "Hasenhegerweg 12, Lisa-Tetzner-Schule, 12353 Berlin",
    "bezirk": "Neukölln",
    "art": "unbekannt",
    "status": "Kontrolle",
    "csvRowId": 195
  },
  {
    "schoolId": "08S09",
    "name": "Schule an der Windmühle",
    "lat": 52.4208258,
    "lon": 13.435264,
    "address": "An den Achterhöfen 13, Christoph-Ruden-Grundschule, 12349 Berlin",
    "bezirk": "Neukölln",
    "art": "unbekannt",
    "status": "Kontrolle",
    "csvRowId": 196
  },
  {
    "schoolId": "08K13",
    "name": "Gemeinschaftsschule Campus Efeuweg",
    "lat": 52.5686745,
    "lon": 13.4924131,
    "address": "Doberaner Str. 53, 13051 Berlin",
    "bezirk": "Neukölln",
    "art": "unbekannt",
    "status": "Kontrolle",
    "csvRowId": 197
  },
  {
    "schoolId": "08K01",
    "name": "Walter-Gropius-Schule",
    "lat": 52.429664,
    "lon": 13.4529557,
    "address": "Johannisthaler Chaussee 317, 12351 Berlin",
    "bezirk": "Neukölln",
    "art": "unbekannt",
    "status": "Kontrolle",
    "csvRowId": 198
  },
  {
    "schoolId": "08K02",
    "name": "Hermann-von-Helmholtz-Schule",
    "lat": 52.4208122,
    "lon": 13.4738713,
    "address": "Wutzkyallee 85, 12353 Berlin",
    "bezirk": "Neukölln",
    "art": "unbekannt",
    "status": "Kontrolle",
    "csvRowId": 199
  },
  {
    "schoolId": "08G16",
    "name": "Hugo-Heimann-Schule",
    "lat": 52.42538,
    "lon": 13.45705,
    "address": "Hugo-Heimann-Str. 20, 12353 Berlin",
    "bezirk": "Neukölln",
    "art": "unbekannt",
    "status": "Kontrolle",
    "csvRowId": 200
  },
  {
    "schoolId": "08G22",
    "name": "Schule am Regenweiher",
    "lat": 52.429664,
    "lon": 13.4529557,
    "address": "Johannisthaler Chaussee 317, 12351 Berlin",
    "bezirk": "Neukölln",
    "art": "unbekannt",
    "status": "Kontrolle",
    "csvRowId": 201
  },
  {
    "schoolId": "08G15",
    "name": "Hermann-Sander-Schule",
    "lat": 52.4804158,
    "lon": 13.4312519,
    "address": "Boddinstr. 55, 12053 Berlin",
    "bezirk": "Neukölln",
    "art": "unbekannt",
    "status": "Kontrolle",
    "csvRowId": 202
  },
  {
    "schoolId": "08G07",
    "name": "Hermann-Boddin-Schule",
    "lat": 52.4804158,
    "lon": 13.4312519,
    "address": "Boddinstr. 55, 12053 Berlin",
    "bezirk": "Neukölln",
    "art": "unbekannt",
    "status": "Kontrolle",
    "csvRowId": 203
  },
  {
    "schoolId": "08G09",
    "name": "Regenbogen-Schule",
    "lat": 52.4804158,
    "lon": 13.4312519,
    "address": "Boddinstr. 55, 12053 Berlin",
    "bezirk": "Neukölln",
    "art": "unbekannt",
    "status": "Kontrolle",
    "csvRowId": 204
  },
  {
    "schoolId": "08G25",
    "name": "Michael-Ende-Schule",
    "lat": 52.4180293,
    "lon": 13.4893869,
    "address": "Bildhauerweg 9, Clay-Oberschule, 12355 Berlin",
    "bezirk": "Neukölln",
    "art": "unbekannt",
    "status": "Kontrolle",
    "csvRowId": 205
  },
  {
    "schoolId": "08G27",
    "name": "Oskar-Heinroth-Schule",
    "lat": 52.44054509999999,
    "lon": 13.4725952,
    "address": "Rohrdommelweg 1, 12359 Berlin",
    "bezirk": "Neukölln",
    "art": "unbekannt",
    "status": "Kontrolle",
    "csvRowId": 206
  },
  {
    "schoolId": "08G28",
    "name": "Matthias-Claudius-Schule",
    "lat": 52.4180293,
    "lon": 13.4893869,
    "address": "Bildhauerweg 9, Clay-Oberschule, 12355 Berlin",
    "bezirk": "Neukölln",
    "art": "unbekannt",
    "status": "Kontrolle",
    "csvRowId": 207
  },
  {
    "schoolId": "08G33",
    "name": "Schule am Fliederbusch",
    "lat": 52.52385659999999,
    "lon": 13.4769023,
    "address": "Alfred-Jung-Str. 19, 10369 Berlin",
    "bezirk": "Neukölln",
    "art": "unbekannt",
    "status": "Kontrolle",
    "csvRowId": 208
  },
  {
    "schoolId": "08G37",
    "name": "Rose-Oehmichen-Schule",
    "lat": 52.4180293,
    "lon": 13.4893869,
    "address": "Bildhauerweg 9, Clay-Oberschule, 12355 Berlin",
    "bezirk": "Neukölln",
    "art": "unbekannt",
    "status": "Kontrolle",
    "csvRowId": 209
  },
  {
    "schoolId": "08Y03",
    "name": "Albert-Einstein-Gymnasium",
    "lat": 52.44865,
    "lon": 13.44389,
    "address": "Onkel-Bräsig-Straße 76, 12359 Berlin",
    "bezirk": "Neukölln",
    "art": "unbekannt",
    "status": "Kontrolle",
    "csvRowId": 210
  },
  {
    "schoolId": "08K05",
    "name": "Clay-Schule",
    "lat": 52.4180293,
    "lon": 13.4893869,
    "address": "Bildhauerweg 9, Clay-Oberschule, 12355 Berlin",
    "bezirk": "Neukölln",
    "art": "unbekannt",
    "status": "Kontrolle",
    "csvRowId": 211
  },
  {
    "schoolId": "08K08",
    "name": "1. Gemeinschaftsschule Neukölln Campus Rütli",
    "lat": 52.5686745,
    "lon": 13.4924131,
    "address": "Doberaner Str. 53, 13051 Berlin",
    "bezirk": "Neukölln",
    "art": "unbekannt",
    "status": "Kontrolle",
    "csvRowId": 212
  },
  {
    "schoolId": "08G20",
    "name": "Sonnen-Schule",
    "lat": 52.47197000000001,
    "lon": 13.46714,
    "address": "Dammweg 228, 12057 Berlin",
    "bezirk": "Neukölln",
    "art": "unbekannt",
    "status": "Kontrolle",
    "csvRowId": 213
  },
  {
    "schoolId": "08K06",
    "name": "Fritz-Karsen-Schule",
    "lat": 52.44865,
    "lon": 13.44389,
    "address": "Onkel-Bräsig-Straße 76, 12359 Berlin",
    "bezirk": "Neukölln",
    "art": "unbekannt",
    "status": "Kontrolle",
    "csvRowId": 214
  },
  {
    "schoolId": "08S08",
    "name": "Schilling-Schule",
    "lat": 52.52385659999999,
    "lon": 13.4769023,
    "address": "Alfred-Jung-Str. 19, 10369 Berlin",
    "bezirk": "Neukölln",
    "art": "unbekannt",
    "status": "Kontrolle",
    "csvRowId": 215
  },
  {
    "schoolId": "08S06",
    "name": "Hans-Fallada-Schule",
    "lat": 52.4844921,
    "lon": 13.4496617,
    "address": "Harzer Str. 39, 12059 Berlin",
    "bezirk": "Neukölln",
    "art": "unbekannt",
    "status": "Kontrolle",
    "csvRowId": 216
  },
  {
    "schoolId": "08G01",
    "name": "Rixdorfer Schule",
    "lat": 52.52385659999999,
    "lon": 13.4769023,
    "address": "Alfred-Jung-Str. 19, 10369 Berlin",
    "bezirk": "Neukölln",
    "art": "unbekannt",
    "status": "Kontrolle",
    "csvRowId": 217
  },
  {
    "schoolId": "08G05",
    "name": "Elbe-Schule",
    "lat": 52.4849508,
    "lon": 13.4403918,
    "address": "Elbestr. 28, 12045 Berlin",
    "bezirk": "Neukölln",
    "art": "unbekannt",
    "status": "Kontrolle",
    "csvRowId": 218
  },
  {
    "schoolId": "08G08",
    "name": "Karlsgarten-Schule",
    "lat": 52.4821334,
    "lon": 13.4208041,
    "address": "Karlsgartenstr. 7, 12049 Berlin",
    "bezirk": "Neukölln",
    "art": "unbekannt",
    "status": "Kontrolle",
    "csvRowId": 219
  },
  {
    "schoolId": "08K04",
    "name": "Heinrich-Mann-Schule",
    "lat": 52.42538,
    "lon": 13.45705,
    "address": "Hugo-Heimann-Str. 20, 12353 Berlin",
    "bezirk": "Neukölln",
    "art": "unbekannt",
    "status": "Kontrolle",
    "csvRowId": 220
  },
  {
    "schoolId": "08Y02",
    "name": "Albert-Schweitzer-Gymnasium",
    "lat": 52.52892,
    "lon": 13.46817,
    "address": "Franz-Jacob-Str. 14, 10369 Berlin",
    "bezirk": "Neukölln",
    "art": "unbekannt",
    "status": "Kontrolle",
    "csvRowId": 221
  },
  {
    "schoolId": "08Y04",
    "name": "Ernst-Abbe-Gymnasium",
    "lat": 52.4849508,
    "lon": 13.4403918,
    "address": "Elbestr. 28, 12045 Berlin",
    "bezirk": "Neukölln",
    "art": "unbekannt",
    "status": "Kontrolle",
    "csvRowId": 222
  },
  {
    "schoolId": "08G19",
    "name": "Herman-Nohl-Schule",
    "lat": 52.44932859999999,
    "lon": 13.4368455,
    "address": "Britzer Damm 151, 12347 Berlin",
    "bezirk": "Neukölln",
    "art": "unbekannt",
    "status": "Kontrolle",
    "csvRowId": 223
  },
  {
    "schoolId": "08G35",
    "name": "Schule in der Köllnischen Heide",
    "lat": 52.47197000000001,
    "lon": 13.46714,
    "address": "Dammweg 228, 12057 Berlin",
    "bezirk": "Neukölln",
    "art": "unbekannt",
    "status": "Kontrolle",
    "csvRowId": 224
  },
  {
    "schoolId": "08K12",
    "name": "Kepler-Schule",
    "lat": 52.47197000000001,
    "lon": 13.46714,
    "address": "Dammweg 228, 12057 Berlin",
    "bezirk": "Neukölln",
    "art": "unbekannt",
    "status": "Kontrolle",
    "csvRowId": 225
  },
  {
    "schoolId": "08S01",
    "name": "Adolf-Reichwein-Schule",
    "lat": 52.4844921,
    "lon": 13.4496617,
    "address": "Harzer Str. 39, 12059 Berlin",
    "bezirk": "Neukölln",
    "art": "unbekannt",
    "status": "Kontrolle",
    "csvRowId": 226
  },
  {
    "schoolId": "03G21",
    "name": "Grundschule unter den Bäumen",
    "lat": 52.4208258,
    "lon": 13.435264,
    "address": "An den Achterhöfen 13, Christoph-Ruden-Grundschule, 12349 Berlin",
    "bezirk": "Pankow",
    "art": "unbekannt",
    "status": "Kontrolle",
    "csvRowId": 227
  },
  {
    "schoolId": "03G23",
    "name": "Grundschule Alt-Karow",
    "lat": 52.47737,
    "lon": 13.29414,
    "address": "Reichenhaller Str. 56, 14199 Berlin",
    "bezirk": "Pankow",
    "art": "unbekannt",
    "status": "Kontrolle",
    "csvRowId": 228
  },
  {
    "schoolId": "03S10",
    "name": "Marianne-Buggenhagen-Schule",
    "lat": 52.52385659999999,
    "lon": 13.4769023,
    "address": "Alfred-Jung-Str. 19, 10369 Berlin",
    "bezirk": "Pankow",
    "art": "unbekannt",
    "status": "Kontrolle",
    "csvRowId": 229
  },
  {
    "schoolId": "03Y10",
    "name": "Rosa-Luxemburg-Gymnasium",
    "lat": 52.55909639999999,
    "lon": 13.4231494,
    "address": "Neumannstr. 11, 13189 Berlin",
    "bezirk": "Pankow",
    "art": "unbekannt",
    "status": "Kontrolle",
    "csvRowId": 230
  },
  {
    "schoolId": "03G39",
    "name": "Grundschule Wolkenstein",
    "lat": 52.55909639999999,
    "lon": 13.4231494,
    "address": "Neumannstr. 11, 13189 Berlin",
    "bezirk": "Pankow",
    "art": "unbekannt",
    "status": "Kontrolle",
    "csvRowId": 231
  },
  {
    "schoolId": "03G32",
    "name": "Grundschule an den Buchen",
    "lat": 52.5908898,
    "lon": 13.4105767,
    "address": "Charlottenstr. 19, 13156 ",
    "bezirk": "Pankow",
    "art": "unbekannt",
    "status": "Kontrolle",
    "csvRowId": 232
  },
  {
    "schoolId": "03G36",
    "name": "Reaktivierung Grundschule Buchholzer Str. 3 (früher Hans-Fallada-Schule)\nUmzug der Elisabeth-Christinen-Grundschule",
    "lat": 52.582521,
    "lon": 13.4181304,
    "address": "Lindenberger Str. 12, 13156 Berlin",
    "bezirk": "Pankow",
    "art": "unbekannt",
    "status": "Kontrolle",
    "csvRowId": 233
  },
  {
    "schoolId": "03G28",
    "name": "Grundschule im Hasengrund\nHasengrund-Schule",
    "lat": 52.5908898,
    "lon": 13.4105767,
    "address": "Charlottenstr. 19, 13156 ",
    "bezirk": "Pankow",
    "art": "unbekannt",
    "status": "Kontrolle",
    "csvRowId": 234
  },
  {
    "schoolId": "03G36",
    "name": "Elisabeth-Christinen-Grundschule\ns. Reaktivierung Grundschule Buchholzer Str. 3",
    "lat": 52.582521,
    "lon": 13.4181304,
    "address": "Lindenberger Str. 12, 13156 Berlin",
    "bezirk": "Pankow",
    "art": "unbekannt",
    "status": "Kontrolle",
    "csvRowId": 235
  },
  {
    "schoolId": "03G43",
    "name": "Grundschule Wilhelmsruh",
    "lat": 52.5903085,
    "lon": 13.3642087,
    "address": "Lessingstr. 44, 13158 Berlin",
    "bezirk": "Pankow",
    "art": "unbekannt",
    "status": "Kontrolle",
    "csvRowId": 236
  },
  {
    "schoolId": "03G27",
    "name": "Elizabeth-Shaw-Grundschule",
    "lat": 52.57527,
    "lon": 13.41784,
    "address": "Stiftsweg 37, 13187 Berlin",
    "bezirk": "Pankow",
    "art": "unbekannt",
    "status": "Kontrolle",
    "csvRowId": 237
  },
  {
    "schoolId": "03G34",
    "name": "Mendel Grundschule",
    "lat": 52.57527,
    "lon": 13.41784,
    "address": "Stiftsweg 37, 13187 Berlin",
    "bezirk": "Pankow",
    "art": "unbekannt",
    "status": "Kontrolle",
    "csvRowId": 238
  },
  {
    "schoolId": "03G41",
    "name": "Trelleborg-Schule",
    "lat": 52.55909639999999,
    "lon": 13.4231494,
    "address": "Neumannstr. 11, 13189 Berlin",
    "bezirk": "Pankow",
    "art": "unbekannt",
    "status": "Kontrolle",
    "csvRowId": 239
  },
  {
    "schoolId": "03G35",
    "name": "Grundschule an der Marie",
    "lat": 52.530658,
    "lon": 13.4236525,
    "address": "Heinrich-Roller-Str. 18, Heinrich-Roller-Grundschule, 10405 Berlin",
    "bezirk": "Pankow",
    "art": "unbekannt",
    "status": "Kontrolle",
    "csvRowId": 240
  },
  {
    "schoolId": "03G05",
    "name": "Homer-Grundschule",
    "lat": 52.5342601,
    "lon": 13.4323001,
    "address": "Pasteurstr. 5, 10407 Berlin",
    "bezirk": "Pankow",
    "art": "unbekannt",
    "status": "Kontrolle",
    "csvRowId": 241
  },
  {
    "schoolId": "03K07",
    "name": "Tesla-Schule",
    "lat": 52.5342601,
    "lon": 13.4323001,
    "address": "Pasteurstr. 5, 10407 Berlin",
    "bezirk": "Pankow",
    "art": "unbekannt",
    "status": "Kontrolle",
    "csvRowId": 242
  },
  {
    "schoolId": "03G02",
    "name": "Heinrich-Roller-Grundschule",
    "lat": 52.530658,
    "lon": 13.4236525,
    "address": "Heinrich-Roller-Str. 18, Heinrich-Roller-Grundschule, 10405 Berlin",
    "bezirk": "Pankow",
    "art": "unbekannt",
    "status": "Kontrolle",
    "csvRowId": 243
  },
  {
    "schoolId": "03G11",
    "name": "Schule am Falkplatz",
    "lat": 52.52385659999999,
    "lon": 13.4769023,
    "address": "Alfred-Jung-Str. 19, 10369 Berlin",
    "bezirk": "Pankow",
    "art": "unbekannt",
    "status": "Kontrolle",
    "csvRowId": 244
  },
  {
    "schoolId": "03K04",
    "name": "Gustave-Eiffel-Schule",
    "lat": 52.52385659999999,
    "lon": 13.4769023,
    "address": "Alfred-Jung-Str. 19, 10369 Berlin",
    "bezirk": "Pankow",
    "art": "unbekannt",
    "status": "Kontrolle",
    "csvRowId": 245
  },
  {
    "schoolId": "03G17",
    "name": "Grundschule am Weißen See",
    "lat": 52.537074,
    "lon": 13.4831566,
    "address": "Sandinostr. 8-10, Gutenberg-Schule, Grundschule am Wilhelmsberg, 13055 Berlin",
    "bezirk": "Pankow",
    "art": "unbekannt",
    "status": "Kontrolle",
    "csvRowId": 246
  },
  {
    "schoolId": "03G18",
    "name": "Picasso-Grundschule",
    "lat": 52.55575,
    "lon": 13.3337501,
    "address": "Afrikanische Str. 123, 13351 Berlin",
    "bezirk": "Pankow",
    "art": "unbekannt",
    "status": "Kontrolle",
    "csvRowId": 247
  },
  {
    "schoolId": "03G20",
    "name": "Grundschule im Moselviertel",
    "lat": 52.434,
    "lon": 13.36188,
    "address": "Halbauer Weg 22, 12249 Berlin",
    "bezirk": "Pankow",
    "art": "unbekannt",
    "status": "Kontrolle",
    "csvRowId": 248
  },
  {
    "schoolId": "03G44",
    "name": "Georg-Zacharias-Grundschule",
    "lat": 52.55575,
    "lon": 13.3337501,
    "address": "Afrikanische Str. 123, 13351 Berlin",
    "bezirk": "Pankow",
    "art": "unbekannt",
    "status": "Kontrolle",
    "csvRowId": 249
  },
  {
    "schoolId": "03G13",
    "name": "Rudolf-Dörrier-Grundschule\numbenannt: Grundschule in Rosenthal",
    "lat": 52.59160139999999,
    "lon": 13.3760807,
    "address": "Kastanienallee 59, 13158 Berlin",
    "bezirk": "Pankow",
    "art": "unbekannt",
    "status": "Kontrolle",
    "csvRowId": 250
  },
  {
    "schoolId": "03Gn04",
    "name": "Grundschule Karower\nChaussee",
    "lat": 52.59160139999999,
    "lon": 13.3760807,
    "address": "Kastanienallee 59, 13158 Berlin",
    "bezirk": "Pankow",
    "art": "unbekannt",
    "status": "Kontrolle",
    "csvRowId": 251
  },
  {
    "schoolId": "03K05",
    "name": "Heinz-Brandt-Schule",
    "lat": 52.52385659999999,
    "lon": 13.4769023,
    "address": "Alfred-Jung-Str. 19, 10369 Berlin",
    "bezirk": "Pankow",
    "art": "unbekannt",
    "status": "Kontrolle",
    "csvRowId": 252
  },
  {
    "schoolId": "03K08",
    "name": "Hagenbeck-Schule",
    "lat": 52.4876198,
    "lon": 13.3555319,
    "address": "Belziger Str. 13, 10823 Berlin",
    "bezirk": "Pankow",
    "art": "unbekannt",
    "status": "Kontrolle",
    "csvRowId": 253
  },
  {
    "schoolId": "03K10",
    "name": "Hufeland-Schule",
    "lat": 52.5042261,
    "lon": 13.5174189,
    "address": "Franz-Mett-Str. 18, 10319 Berlin",
    "bezirk": "Pankow",
    "art": "unbekannt",
    "status": "Kontrolle",
    "csvRowId": 254
  },
  {
    "schoolId": "03S08",
    "name": "Panke-Schule",
    "lat": 52.57527,
    "lon": 13.41784,
    "address": "Stiftsweg 37, 13187 Berlin",
    "bezirk": "Pankow",
    "art": "unbekannt",
    "status": "Kontrolle",
    "csvRowId": 255
  },
  {
    "schoolId": "03Y04",
    "name": "Heinrich-Schliemann-Gymnasium",
    "lat": 52.5456112,
    "lon": 13.4232326,
    "address": "Dunckerstr. 65, Käthe-Kollwitz-Gymnasium, 10439 Berlin",
    "bezirk": "Pankow",
    "art": "unbekannt",
    "status": "Kontrolle",
    "csvRowId": 256
  },
  {
    "schoolId": "03Y13",
    "name": "Felix-Mendelssohn-Bartholdy-Gymnasium",
    "lat": 52.5342601,
    "lon": 13.4323001,
    "address": "Pasteurstr. 5, 10407 Berlin",
    "bezirk": "Pankow",
    "art": "unbekannt",
    "status": "Kontrolle",
    "csvRowId": 257
  },
  {
    "schoolId": "03Y14",
    "name": "Primo-Levi-Gymnasium",
    "lat": 52.4331464,
    "lon": 13.3416744,
    "address": "Barbarastr. 14, 12249 Berlin",
    "bezirk": "Pankow",
    "art": "unbekannt",
    "status": "Kontrolle",
    "csvRowId": 258
  },
  {
    "schoolId": "03Y15",
    "name": "Max-Delbrück-Gymnasium",
    "lat": 52.574088,
    "lon": 13.444867,
    "address": "Blankenburger Str. 23, Schule , 13156 Berlin",
    "bezirk": "Pankow",
    "art": "unbekannt",
    "status": "Kontrolle",
    "csvRowId": 259
  },
  {
    "schoolId": "03Y17",
    "name": "Gymnasium am Europasportpark\nehem. Goubertin-Gynmasium\nUmzug und neuer Name: Inge-Deutschkron-Gymnasium",
    "lat": 52.5342601,
    "lon": 13.4323001,
    "address": "Pasteurstr. 5, 10407 Berlin",
    "bezirk": "Pankow",
    "art": "unbekannt",
    "status": "Kontrolle",
    "csvRowId": 260
  },
  {
    "schoolId": "03Y17",
    "name": "Inge-Deutschkron-Gymnasium",
    "lat": 52.5342601,
    "lon": 13.4323001,
    "address": "Pasteurstr. 5, 10407 Berlin",
    "bezirk": "Pankow",
    "art": "unbekannt",
    "status": "Kontrolle",
    "csvRowId": 261
  },
  {
    "schoolId": "12G23",
    "name": "Victor-Gollancz-Grundschule",
    "lat": 52.500939,
    "lon": 13.3848935,
    "address": "Hallesche Str. 24, 10963 Berlin",
    "bezirk": "Reinickendorf",
    "art": "unbekannt",
    "status": "Kontrolle",
    "csvRowId": 262
  },
  {
    "schoolId": "12K11",
    "name": "Albrecht-Haushofer-Schule",
    "lat": 52.4123641,
    "lon": 13.35402,
    "address": "Erbendorfer Weg 7, 12279 Berlin",
    "bezirk": "Reinickendorf",
    "art": "unbekannt",
    "status": "Kontrolle",
    "csvRowId": 263
  },
  {
    "schoolId": "12G18",
    "name": "Grundschule am Tegelschen Ort",
    "lat": 52.48547,
    "lon": 13.17431,
    "address": "Am Kinderdorf 23, 14089 Berlin",
    "bezirk": "Reinickendorf",
    "art": "unbekannt",
    "status": "Kontrolle",
    "csvRowId": 264
  },
  {
    "schoolId": "12G17",
    "name": "Ellef-Ringnes-Grundschule",
    "lat": 52.5101,
    "lon": 13.48594,
    "address": "Harnackstr. 17, 10365 Berlin",
    "bezirk": "Reinickendorf",
    "art": "unbekannt",
    "status": "Kontrolle",
    "csvRowId": 265
  },
  {
    "schoolId": "12K10",
    "name": "Carl-Bosch-Oberschule",
    "lat": 52.5395715,
    "lon": 13.4958625,
    "address": "Werneuchener Str. 15, 13055 Berlin",
    "bezirk": "Reinickendorf",
    "art": "unbekannt",
    "status": "Kontrolle",
    "csvRowId": 266
  },
  {
    "schoolId": "12G22",
    "name": "Gustav-Dreyer-Grundschule",
    "lat": 52.5379679,
    "lon": 13.3916307,
    "address": "Strelitzer Str. 42, Gustav-Falke-Grundschule, 13355 Berlin",
    "bezirk": "Reinickendorf",
    "art": "unbekannt",
    "status": "Kontrolle",
    "csvRowId": 267
  },
  {
    "schoolId": "12G04",
    "name": "Till-Eulenspiegel-Grundschule",
    "lat": 52.4208258,
    "lon": 13.435264,
    "address": "An den Achterhöfen 13, Christoph-Ruden-Grundschule, 12349 Berlin",
    "bezirk": "Reinickendorf",
    "art": "unbekannt",
    "status": "Kontrolle",
    "csvRowId": 268
  },
  {
    "schoolId": "12G32",
    "name": "Charlie-Chaplin-Grundschule",
    "lat": 52.5976429,
    "lon": 13.3648821,
    "address": "Wilhelmsruher Damm 90, Charlie-Chaplin-Grundschule, 13439 Berlin",
    "bezirk": "Reinickendorf",
    "art": "unbekannt",
    "status": "Kontrolle",
    "csvRowId": 269
  },
  {
    "schoolId": "12K02",
    "name": "Bettina-von-Arnim-Schule",
    "lat": 52.4941938,
    "lon": 13.3987461,
    "address": "Blücherstr. 23, 10961 Berlin",
    "bezirk": "Reinickendorf",
    "art": "unbekannt",
    "status": "Kontrolle",
    "csvRowId": 270
  },
  {
    "schoolId": "12Y08",
    "name": "Thomas-Mann-Gymnasium",
    "lat": 52.52892,
    "lon": 13.46817,
    "address": "Franz-Jacob-Str. 14, 10369 Berlin",
    "bezirk": "Reinickendorf",
    "art": "unbekannt",
    "status": "Kontrolle",
    "csvRowId": 271
  },
  {
    "schoolId": "12K12",
    "name": "Campus Hannah Höch",
    "lat": 52.47737,
    "lon": 13.29414,
    "address": "Reichenhaller Str. 56, 14199 Berlin",
    "bezirk": "Reinickendorf",
    "art": "unbekannt",
    "status": "Kontrolle",
    "csvRowId": 272
  },
  {
    "schoolId": "12G26",
    "name": "Märkische Grundschule",
    "lat": 52.5976429,
    "lon": 13.3648821,
    "address": "Wilhelmsruher Damm 90, Charlie-Chaplin-Grundschule, 13439 Berlin",
    "bezirk": "Reinickendorf",
    "art": "unbekannt",
    "status": "Kontrolle",
    "csvRowId": 273
  },
  {
    "schoolId": "12G27",
    "name": "Chamisso-Grundschule",
    "lat": 52.46270000000001,
    "lon": 13.3401,
    "address": "Sachsenwaldstr. 27, 12157 Berlin",
    "bezirk": "Reinickendorf",
    "art": "unbekannt",
    "status": "Kontrolle",
    "csvRowId": 274
  },
  {
    "schoolId": "12G09",
    "name": "Grundschule an der Peckwisch",
    "lat": 52.5976429,
    "lon": 13.3648821,
    "address": "Wilhelmsruher Damm 90, Charlie-Chaplin-Grundschule, 13439 Berlin",
    "bezirk": "Reinickendorf",
    "art": "unbekannt",
    "status": "Kontrolle",
    "csvRowId": 275
  },
  {
    "schoolId": "12G29",
    "name": "Hermann-Schulz-Grundschule",
    "lat": 52.5735932,
    "lon": 13.325553,
    "address": "Kienhorststraße 67, Herman-Schulz-Grundschule, 13403 Berlin",
    "bezirk": "Reinickendorf",
    "art": "unbekannt",
    "status": "Kontrolle",
    "csvRowId": 276
  },
  {
    "schoolId": "12Y01",
    "name": "Friedrich-Engels-Gymnasium",
    "lat": 52.4849919,
    "lon": 13.3200416,
    "address": "Blissestr. 14, 10713 Berlin",
    "bezirk": "Reinickendorf",
    "art": "unbekannt",
    "status": "Kontrolle",
    "csvRowId": 277
  },
  {
    "schoolId": "12K06",
    "name": "Benjamin-Franklin-Schule",
    "lat": 52.52385659999999,
    "lon": 13.4769023,
    "address": "Alfred-Jung-Str. 19, 10369 Berlin",
    "bezirk": "Reinickendorf",
    "art": "unbekannt",
    "status": "Kontrolle",
    "csvRowId": 278
  },
  {
    "schoolId": "12G11",
    "name": "Ringelnatz-Grundschule",
    "lat": 52.5858143,
    "lon": 13.3376301,
    "address": "Wilhelm-Gericke-Str. 7, Ringelnatz-Grundschule, 13437 Berlin",
    "bezirk": "Reinickendorf",
    "art": "unbekannt",
    "status": "Kontrolle",
    "csvRowId": 279
  },
  {
    "schoolId": "12G10",
    "name": "Peter-Witte-Grundschule",
    "lat": 52.5866777,
    "lon": 13.3293391,
    "address": "Rathauspromenade 75, Peter-Witte-Grundschule, 13437 Berlin",
    "bezirk": "Reinickendorf",
    "art": "unbekannt",
    "status": "Kontrolle",
    "csvRowId": 280
  },
  {
    "schoolId": "12G03",
    "name": "Reginhard-Grundschule",
    "lat": 52.56270019999999,
    "lon": 13.3733967,
    "address": "Reginhardstr. 63, 13409 Berlin",
    "bezirk": "Reinickendorf",
    "art": "unbekannt",
    "status": "Kontrolle",
    "csvRowId": 281
  },
  {
    "schoolId": "12G07",
    "name": "Mark-Twain-Grundschule",
    "lat": 52.5735932,
    "lon": 13.325553,
    "address": "Kienhorststraße 67, Herman-Schulz-Grundschule, 13403 Berlin",
    "bezirk": "Reinickendorf",
    "art": "unbekannt",
    "status": "Kontrolle",
    "csvRowId": 282
  },
  {
    "schoolId": "12G14",
    "name": "Alfred-Brehm-Grundschule",
    "lat": 52.434,
    "lon": 13.36188,
    "address": "Halbauer Weg 22, 12249 Berlin",
    "bezirk": "Reinickendorf",
    "art": "unbekannt",
    "status": "Kontrolle",
    "csvRowId": 283
  },
  {
    "schoolId": "12Y02",
    "name": "Europäisches Gymnasium Bertha-von-Suttner //\nBertha-von-Suttner-Oberschule",
    "lat": 52.56270019999999,
    "lon": 13.3733967,
    "address": "Reginhardstr. 63, 13409 Berlin",
    "bezirk": "Reinickendorf",
    "art": "unbekannt",
    "status": "Kontrolle",
    "csvRowId": 284
  },
  {
    "schoolId": "12G30",
    "name": "Reineke-Fuchs-Grundschule",
    "lat": 52.5735932,
    "lon": 13.325553,
    "address": "Kienhorststraße 67, Herman-Schulz-Grundschule, 13403 Berlin",
    "bezirk": "Reinickendorf",
    "art": "unbekannt",
    "status": "Kontrolle",
    "csvRowId": 285
  },
  {
    "schoolId": "12G02",
    "name": "Grundschule am Schäfersee",
    "lat": 52.49234999999999,
    "lon": 13.34978,
    "address": "Barbarossaplatz 5, 10781 Berlin",
    "bezirk": "Reinickendorf",
    "art": "unbekannt",
    "status": "Kontrolle",
    "csvRowId": 286
  },
  {
    "schoolId": "12G01",
    "name": "Havelmüller-Grundschule",
    "lat": 52.57886,
    "lon": 13.28746,
    "address": "Namslaustr. 44, 13507 Berlin",
    "bezirk": "Reinickendorf",
    "art": "unbekannt",
    "status": "Kontrolle",
    "csvRowId": 287
  },
  {
    "schoolId": "12G05",
    "name": "Kolumbus-Grundschule",
    "lat": 52.56270019999999,
    "lon": 13.3733967,
    "address": "Reginhardstr. 63, 13409 Berlin",
    "bezirk": "Reinickendorf",
    "art": "unbekannt",
    "status": "Kontrolle",
    "csvRowId": 288
  },
  {
    "schoolId": "12K05",
    "name": "Gustav-Freytag-Schule",
    "lat": 52.56270019999999,
    "lon": 13.3733967,
    "address": "Reginhardstr. 63, 13409 Berlin",
    "bezirk": "Reinickendorf",
    "art": "unbekannt",
    "status": "Kontrolle",
    "csvRowId": 289
  },
  {
    "schoolId": "05K05",
    "name": "B.-Traven-Gemeinschaftsschule",
    "lat": 52.4325444,
    "lon": 13.3413142,
    "address": "Barbarastr. 26, 12249 Berlin",
    "bezirk": "Spandau",
    "art": "unbekannt",
    "status": "Kontrolle",
    "csvRowId": 290
  },
  {
    "schoolId": "05Y03",
    "name": "Hans-Carossa-Gymnasium",
    "lat": 52.48547,
    "lon": 13.17431,
    "address": "Am Kinderdorf 23, 14089 Berlin",
    "bezirk": "Spandau",
    "art": "unbekannt",
    "status": "Kontrolle",
    "csvRowId": 291
  },
  {
    "schoolId": "05G24",
    "name": "Grundschule am Windmühlenberg",
    "lat": 52.48547,
    "lon": 13.17431,
    "address": "Am Kinderdorf 23, 14089 Berlin",
    "bezirk": "Spandau",
    "art": "unbekannt",
    "status": "Kontrolle",
    "csvRowId": 292
  },
  {
    "schoolId": "05G19",
    "name": "Grundschule am Ritterfeld",
    "lat": 52.48547,
    "lon": 13.17431,
    "address": "Am Kinderdorf 23, 14089 Berlin",
    "bezirk": "Spandau",
    "art": "unbekannt",
    "status": "Kontrolle",
    "csvRowId": 293
  },
  {
    "schoolId": "05K07",
    "name": "Schule an der Jungfernheide",
    "lat": 52.54062010000001,
    "lon": 13.2727972,
    "address": "Jungfernheideweg 33-48, Robert-Reinick-Grundschule, 13629 Berlin",
    "bezirk": "Spandau",
    "art": "unbekannt",
    "status": "Kontrolle",
    "csvRowId": 294
  },
  {
    "schoolId": "05G15",
    "name": "Askanier-Grundschule",
    "lat": 52.4493199,
    "lon": 13.3429879,
    "address": "Karl-Stieler-Str. 10, 12167 Berlin",
    "bezirk": "Spandau",
    "art": "unbekannt",
    "status": "Kontrolle",
    "csvRowId": 295
  },
  {
    "schoolId": "05K09",
    "name": "Schule am Staakener Kleeblatt",
    "lat": 52.52385659999999,
    "lon": 13.4769023,
    "address": "Alfred-Jung-Str. 19, 10369 Berlin",
    "bezirk": "Spandau",
    "art": "unbekannt",
    "status": "Kontrolle",
    "csvRowId": 296
  },
  {
    "schoolId": "05G10",
    "name": "Grundschule am Birkenhain",
    "lat": 52.528938,
    "lon": 13.4821061,
    "address": "Bernhard-Bästlein-Str. 22, Grundschule am Roederplatz, 10367 Berlin",
    "bezirk": "Spandau",
    "art": "unbekannt",
    "status": "Kontrolle",
    "csvRowId": 297
  },
  {
    "schoolId": "05G22",
    "name": "Christian-Morgenstern-Grundschule",
    "lat": 52.50825,
    "lon": 13.1742,
    "address": "Daberkowstr. 27, 13593 Berlin",
    "bezirk": "Spandau",
    "art": "unbekannt",
    "status": "Kontrolle",
    "csvRowId": 298
  },
  {
    "schoolId": "05G12",
    "name": "Grundschule am Weinmeisterhorn",
    "lat": 52.50825,
    "lon": 13.1742,
    "address": "Daberkowstr. 27, 13593 Berlin",
    "bezirk": "Spandau",
    "art": "unbekannt",
    "status": "Kontrolle",
    "csvRowId": 299
  },
  {
    "schoolId": "/",
    "name": "30. Grundschule\nexistiert online nicht",
    "lat": 52.4918,
    "lon": 13.5234299,
    "address": "Römerweg 30, 10318 Berlin",
    "bezirk": "Spandau",
    "art": "unbekannt",
    "status": "Kontrolle",
    "csvRowId": 300
  },
  {
    "schoolId": "05K01",
    "name": "Martin-Buber-Oberschule",
    "lat": 52.5641368,
    "lon": 13.500075,
    "address": "Barther Str. 27, 13051 Berlin",
    "bezirk": "Spandau",
    "art": "unbekannt",
    "status": "Kontrolle",
    "csvRowId": 301
  },
  {
    "schoolId": "05K02",
    "name": "Carlo-Schmid-Oberschule",
    "lat": 52.5395715,
    "lon": 13.4958625,
    "address": "Werneuchener Str. 15, 13055 Berlin",
    "bezirk": "Spandau",
    "art": "unbekannt",
    "status": "Kontrolle",
    "csvRowId": 302
  },
  {
    "schoolId": "05K03",
    "name": "Bertolt-Brecht-Oberschule",
    "lat": 52.4180293,
    "lon": 13.4893869,
    "address": "Bildhauerweg 9, Clay-Oberschule, 12355 Berlin",
    "bezirk": "Spandau",
    "art": "unbekannt",
    "status": "Kontrolle",
    "csvRowId": 303
  },
  {
    "schoolId": "05K08",
    "name": "Schule an der Haveldüne",
    "lat": 52.4530347,
    "lon": 13.5250861,
    "address": "Schnellerstr. 94, 12439 Berlin",
    "bezirk": "Spandau",
    "art": "unbekannt",
    "status": "Kontrolle",
    "csvRowId": 304
  },
  {
    "schoolId": "05Y02",
    "name": "Kant-Gymnasium",
    "lat": 52.5018288,
    "lon": 13.4900872,
    "address": "Lückstr. 60, 10317 Berlin",
    "bezirk": "Spandau",
    "art": "unbekannt",
    "status": "Kontrolle",
    "csvRowId": 305
  },
  {
    "schoolId": "05Y04",
    "name": "Carl-Friedrich-von-Siemens-Gymnasium",
    "lat": 52.54062010000001,
    "lon": 13.2727972,
    "address": "Jungfernheideweg 33-48, Robert-Reinick-Grundschule, 13629 Berlin",
    "bezirk": "Spandau",
    "art": "unbekannt",
    "status": "Kontrolle",
    "csvRowId": 306
  },
  {
    "schoolId": "05S03",
    "name": "Schule am Gartenfeld",
    "lat": 52.52385659999999,
    "lon": 13.4769023,
    "address": "Alfred-Jung-Str. 19, 10369 Berlin",
    "bezirk": "Spandau",
    "art": "unbekannt",
    "status": "Kontrolle",
    "csvRowId": 307
  },
  {
    "schoolId": "05G11",
    "name": "Robert-Reinick-Grundschule",
    "lat": 52.54062010000001,
    "lon": 13.2727972,
    "address": "Jungfernheideweg 33-48, Robert-Reinick-Grundschule, 13629 Berlin",
    "bezirk": "Spandau",
    "art": "unbekannt",
    "status": "Kontrolle",
    "csvRowId": 308
  },
  {
    "schoolId": "05G21",
    "name": "Paul-Moor-Schule",
    "lat": 52.5236355,
    "lon": 13.4730412,
    "address": "Paul-Junius-Str. 25, 10369 Berlin",
    "bezirk": "Spandau",
    "art": "unbekannt",
    "status": "Kontrolle",
    "csvRowId": 309
  },
  {
    "schoolId": "05G01",
    "name": "Ernst-Ludwig-Hem-Grundschule",
    "lat": 52.434,
    "lon": 13.36188,
    "address": "Halbauer Weg 22, 12249 Berlin",
    "bezirk": "Spandau",
    "art": "unbekannt",
    "status": "Kontrolle",
    "csvRowId": 310
  },
  {
    "schoolId": "05G02",
    "name": "Grundschule am Eichenwald",
    "lat": 52.49234999999999,
    "lon": 13.34978,
    "address": "Barbarossaplatz 5, 10781 Berlin",
    "bezirk": "Spandau",
    "art": "unbekannt",
    "status": "Kontrolle",
    "csvRowId": 311
  },
  {
    "schoolId": "05K04",
    "name": "Heinrich-Böll-Oberschule",
    "lat": 52.52385659999999,
    "lon": 13.4769023,
    "address": "Alfred-Jung-Str. 19, 10369 Berlin",
    "bezirk": "Spandau",
    "art": "unbekannt",
    "status": "Kontrolle",
    "csvRowId": 312
  },
  {
    "schoolId": "05G01",
    "name": "Ernst-Ludwig-Heim-Grundschule",
    "lat": 52.434,
    "lon": 13.36188,
    "address": "Halbauer Weg 22, 12249 Berlin",
    "bezirk": "Spandau",
    "art": "unbekannt",
    "status": "Kontrolle",
    "csvRowId": 313
  },
  {
    "schoolId": "05G05",
    "name": "Christoph-Földerich-Grundschule",
    "lat": 52.4208258,
    "lon": 13.435264,
    "address": "An den Achterhöfen 13, Christoph-Ruden-Grundschule, 12349 Berlin",
    "bezirk": "Spandau",
    "art": "unbekannt",
    "status": "Kontrolle",
    "csvRowId": 314
  },
  {
    "schoolId": "05G06",
    "name": "Siegerland-Grundschule",
    "lat": 52.5908898,
    "lon": 13.4105767,
    "address": "Charlottenstr. 19, 13156 ",
    "bezirk": "Spandau",
    "art": "unbekannt",
    "status": "Kontrolle",
    "csvRowId": 315
  },
  {
    "schoolId": "06K02",
    "name": "Wilma-Rudolph-Schule",
    "lat": 52.52385659999999,
    "lon": 13.4769023,
    "address": "Alfred-Jung-Str. 19, 10369 Berlin",
    "bezirk": "Steglitz-Zehlendorf",
    "art": "unbekannt",
    "status": "Kontrolle",
    "csvRowId": 316
  },
  {
    "schoolId": "06K09",
    "name": "Gail-S.-Halvorsen-Schule",
    "lat": 52.4547258,
    "lon": 13.2700681,
    "address": "Hüttenweg 40, 14195 Berlin",
    "bezirk": "Steglitz-Zehlendorf",
    "art": "unbekannt",
    "status": "Kontrolle",
    "csvRowId": 317
  },
  {
    "schoolId": "06Y03",
    "name": "Arndt-Gymnasium Dahlem",
    "lat": 52.4587137,
    "lon": 13.2883987,
    "address": "Königin-Luise-Str. 49, 14195 Berlin",
    "bezirk": "Steglitz-Zehlendorf",
    "art": "unbekannt",
    "status": "Kontrolle",
    "csvRowId": 318
  },
  {
    "schoolId": "06G21",
    "name": "Paul-Schneider-Grundschule",
    "lat": 52.431002,
    "lon": 13.341243,
    "address": "Seydlitzstr. 30, 12249 Berlin",
    "bezirk": "Steglitz-Zehlendorf",
    "art": "unbekannt",
    "status": "Kontrolle",
    "csvRowId": 319
  },
  {
    "schoolId": "06G24",
    "name": "Grundschule unter den Kastanien",
    "lat": 52.4208258,
    "lon": 13.435264,
    "address": "An den Achterhöfen 13, Christoph-Ruden-Grundschule, 12349 Berlin",
    "bezirk": "Steglitz-Zehlendorf",
    "art": "unbekannt",
    "status": "Kontrolle",
    "csvRowId": 320
  },
  {
    "schoolId": "06G27",
    "name": "Grundschule am Königsgraben",
    "lat": 52.4354823,
    "lon": 13.3469414,
    "address": "Gallwitzallee 1, 12249 Berlin",
    "bezirk": "Steglitz-Zehlendorf",
    "art": "unbekannt",
    "status": "Kontrolle",
    "csvRowId": 321
  },
  {
    "schoolId": "06G28",
    "name": "Ludwig-Bechstein-Grundschule",
    "lat": 52.43255,
    "lon": 13.36236,
    "address": "Halbauer Weg 25, 12249 Berlin",
    "bezirk": "Steglitz-Zehlendorf",
    "art": "unbekannt",
    "status": "Kontrolle",
    "csvRowId": 322
  },
  {
    "schoolId": "06G29",
    "name": "Grundschule am Karpfenteich",
    "lat": 52.528938,
    "lon": 13.4821061,
    "address": "Bernhard-Bästlein-Str. 22, Grundschule am Roederplatz, 10367 Berlin",
    "bezirk": "Steglitz-Zehlendorf",
    "art": "unbekannt",
    "status": "Kontrolle",
    "csvRowId": 323
  },
  {
    "schoolId": "06K04",
    "name": "Bröndby-Schule",
    "lat": 52.4331464,
    "lon": 13.3416744,
    "address": "Barbarastr. 14, 12249 Berlin",
    "bezirk": "Steglitz-Zehlendorf",
    "art": "unbekannt",
    "status": "Kontrolle",
    "csvRowId": 324
  },
  {
    "schoolId": "06Y06",
    "name": "Beethoven-Gymnasium\nFilialeBeethoven-Gymnasium",
    "lat": 52.4331464,
    "lon": 13.3416744,
    "address": "Barbarastr. 14, 12249 Berlin",
    "bezirk": "Steglitz-Zehlendorf",
    "art": "unbekannt",
    "status": "Kontrolle",
    "csvRowId": 325
  },
  {
    "schoolId": "06G20",
    "name": "Alt-Lankwitzer Grundschule",
    "lat": 52.5101,
    "lon": 13.48594,
    "address": "Harnackstr. 17, 10365 Berlin",
    "bezirk": "Steglitz-Zehlendorf",
    "art": "unbekannt",
    "status": "Kontrolle",
    "csvRowId": 326
  },
  {
    "schoolId": "06G32",
    "name": "Grundschule am Stadpark Steglitz\n34. Grundschule",
    "lat": 52.4493199,
    "lon": 13.3429879,
    "address": "Karl-Stieler-Str. 10, 12167 Berlin",
    "bezirk": "Steglitz-Zehlendorf",
    "art": "unbekannt",
    "status": "Kontrolle",
    "csvRowId": 327
  },
  {
    "schoolId": "06G33",
    "name": "Friedrich-Drake-Grundschule",
    "lat": 52.4323682,
    "lon": 13.3077842,
    "address": "Drakestr. 80, 12205 Berlin",
    "bezirk": "Steglitz-Zehlendorf",
    "art": "unbekannt",
    "status": "Kontrolle",
    "csvRowId": 328
  },
  {
    "schoolId": "06G18",
    "name": "Athene-Grundschule",
    "lat": 52.4404192,
    "lon": 13.2903455,
    "address": "Curtiusstr. 37, 12205 Berlin",
    "bezirk": "Steglitz-Zehlendorf",
    "art": "unbekannt",
    "status": "Kontrolle",
    "csvRowId": 329
  },
  {
    "schoolId": "06Y10",
    "name": "Lilienthal-Gymnasium",
    "lat": 52.43595,
    "lon": 13.31215,
    "address": "Ringstr. 2, 12203 Berlin",
    "bezirk": "Steglitz-Zehlendorf",
    "art": "unbekannt",
    "status": "Kontrolle",
    "csvRowId": 330
  },
  {
    "schoolId": "06Y11",
    "name": "Goethe-Gymnasium Lichterfelde",
    "lat": 52.4349291,
    "lon": 13.3053627,
    "address": "Drakestr. 72, 12205 Berlin",
    "bezirk": "Steglitz-Zehlendorf",
    "art": "unbekannt",
    "status": "Kontrolle",
    "csvRowId": 331
  },
  {
    "schoolId": "06Y12",
    "name": "Willi-Graf-Gymnasium",
    "lat": 52.43469,
    "lon": 13.32096,
    "address": "Ostpreußendamm 166, 12207 Berlin",
    "bezirk": "Steglitz-Zehlendorf",
    "art": "unbekannt",
    "status": "Kontrolle",
    "csvRowId": 332
  },
  {
    "schoolId": "06G22",
    "name": "Giesensdorfer Grundschule",
    "lat": 52.42228919999999,
    "lon": 13.3105274,
    "address": "Ostpreußendamm 63, 12207 Berlin",
    "bezirk": "Steglitz-Zehlendorf",
    "art": "unbekannt",
    "status": "Kontrolle",
    "csvRowId": 333
  },
  {
    "schoolId": "06G30",
    "name": "Mercator-Grundschule",
    "lat": 52.4122498,
    "lon": 13.3173755,
    "address": "Mercatorweg 8, 12207 Berlin",
    "bezirk": "Steglitz-Zehlendorf",
    "art": "unbekannt",
    "status": "Kontrolle",
    "csvRowId": 334
  },
  {
    "schoolId": "06G25",
    "name": "Clemens-Brentano-Grundschule",
    "lat": 52.4328993,
    "lon": 13.292486,
    "address": "Kommandantenstr. 28, 12205 Berlin",
    "bezirk": "Steglitz-Zehlendorf",
    "art": "unbekannt",
    "status": "Kontrolle",
    "csvRowId": 335
  },
  {
    "schoolId": "06G23",
    "name": "Kronach-Grundschule",
    "lat": 52.4416699,
    "lon": 13.3130976,
    "address": "Moltkestr. 24, 12203 Berlin",
    "bezirk": "Steglitz-Zehlendorf",
    "art": "unbekannt",
    "status": "Kontrolle",
    "csvRowId": 336
  },
  {
    "schoolId": "06K11",
    "name": "Anna-Essinger Gemeinschaftsschule",
    "lat": 52.52385659999999,
    "lon": 13.4769023,
    "address": "Alfred-Jung-Str. 19, 10369 Berlin",
    "bezirk": "Steglitz-Zehlendorf",
    "art": "unbekannt",
    "status": "Kontrolle",
    "csvRowId": 337
  },
  {
    "schoolId": "06S05",
    "name": "Johann-August-Zeune Schule",
    "lat": 52.4555104,
    "lon": 13.3144163,
    "address": "Rothenburgstr. 14, 12165 Berlin",
    "bezirk": "Steglitz-Zehlendorf",
    "art": "unbekannt",
    "status": "Kontrolle",
    "csvRowId": 338
  },
  {
    "schoolId": "06Y07",
    "name": "Paulsen-Gymnasium",
    "lat": 52.4618909,
    "lon": 13.3145884,
    "address": "Gritznerstr. 57, 12163 Berlin",
    "bezirk": "Steglitz-Zehlendorf",
    "art": "unbekannt",
    "status": "Kontrolle",
    "csvRowId": 339
  },
  {
    "schoolId": "06Y08",
    "name": "Hermann-Ehlers-Gymnasium",
    "lat": 52.453105,
    "lon": 13.3346948,
    "address": "Elisenstr. 3-4, Hermann-Ehlers-Gymnasium, 12169 Berlin",
    "bezirk": "Steglitz-Zehlendorf",
    "art": "unbekannt",
    "status": "Kontrolle",
    "csvRowId": 340
  },
  {
    "schoolId": "06Y09",
    "name": "Fichtenberg-Gymnasium\nFichtenberg-Oberschule",
    "lat": 52.4541438,
    "lon": 13.3130238,
    "address": "Rothenburgstr. 18, Fichtenberg-Gymnasium, 12165 Berlin",
    "bezirk": "Steglitz-Zehlendorf",
    "art": "unbekannt",
    "status": "Kontrolle",
    "csvRowId": 341
  },
  {
    "schoolId": "06G01",
    "name": "Nord-Grundschule",
    "lat": 52.4451221,
    "lon": 13.2464701,
    "address": "Wilskistr. 78, Zinnowwald-Grundschule, 14163 Berlin",
    "bezirk": "Steglitz-Zehlendorf",
    "art": "unbekannt",
    "status": "Kontrolle",
    "csvRowId": 342
  },
  {
    "schoolId": "06G02",
    "name": "Süd-Grundschule",
    "lat": 52.4293091,
    "lon": 13.2582887,
    "address": "Schönower Str. 3, 14165 Berlin",
    "bezirk": "Steglitz-Zehlendorf",
    "art": "unbekannt",
    "status": "Kontrolle",
    "csvRowId": 343
  },
  {
    "schoolId": "06G03",
    "name": "Johannes-Tews-Grundschule",
    "lat": 52.55575,
    "lon": 13.3337501,
    "address": "Afrikanische Str. 123, 13351 Berlin",
    "bezirk": "Steglitz-Zehlendorf",
    "art": "unbekannt",
    "status": "Kontrolle",
    "csvRowId": 344
  },
  {
    "schoolId": "06G04",
    "name": "Erich-Kästner-Grundschule",
    "lat": 52.4547258,
    "lon": 13.2700681,
    "address": "Hüttenweg 40, 14195 Berlin",
    "bezirk": "Steglitz-Zehlendorf",
    "art": "unbekannt",
    "status": "Kontrolle",
    "csvRowId": 345
  },
  {
    "schoolId": "03B06",
    "name": "Conrad-Grundschule",
    "lat": 52.55575,
    "lon": 13.3337501,
    "address": "Afrikanische Str. 123, 13351 Berlin",
    "bezirk": "Steglitz-Zehlendorf",
    "art": "unbekannt",
    "status": "Kontrolle",
    "csvRowId": 346
  },
  {
    "schoolId": "06G06",
    "name": "Mühlenau-Grundschule",
    "lat": 52.4547258,
    "lon": 13.2700681,
    "address": "Hüttenweg 40, 14195 Berlin",
    "bezirk": "Steglitz-Zehlendorf",
    "art": "unbekannt",
    "status": "Kontrolle",
    "csvRowId": 347
  },
  {
    "schoolId": "06G07",
    "name": "Zinnowwald-Grundschule",
    "lat": 52.4451221,
    "lon": 13.2464701,
    "address": "Wilskistr. 78, Zinnowwald-Grundschule, 14163 Berlin",
    "bezirk": "Steglitz-Zehlendorf",
    "art": "unbekannt",
    "status": "Kontrolle",
    "csvRowId": 348
  },
  {
    "schoolId": "06G08",
    "name": "Schweizerhof-Grundschule",
    "lat": 52.4227788,
    "lon": 13.2657182,
    "address": "Leo-Baeck-Str. 28, 14167 Berlin",
    "bezirk": "Steglitz-Zehlendorf",
    "art": "unbekannt",
    "status": "Kontrolle",
    "csvRowId": 349
  },
  {
    "schoolId": "06G12",
    "name": "Quentin-Blake-Grundschule",
    "lat": 52.4547258,
    "lon": 13.2700681,
    "address": "Hüttenweg 40, 14195 Berlin",
    "bezirk": "Steglitz-Zehlendorf",
    "art": "unbekannt",
    "status": "Kontrolle",
    "csvRowId": 350
  },
  {
    "schoolId": "06S01",
    "name": "Pestalozzi-Schule",
    "lat": 52.4451221,
    "lon": 13.2464701,
    "address": "Wilskistr. 78, Zinnowwald-Grundschule, 14163 Berlin",
    "bezirk": "Steglitz-Zehlendorf",
    "art": "unbekannt",
    "status": "Kontrolle",
    "csvRowId": 351
  },
  {
    "schoolId": "06S02",
    "name": "Biesalski-Schule",
    "lat": 52.4547258,
    "lon": 13.2700681,
    "address": "Hüttenweg 40, 14195 Berlin",
    "bezirk": "Steglitz-Zehlendorf",
    "art": "unbekannt",
    "status": "Kontrolle",
    "csvRowId": 352
  },
  {
    "schoolId": "06Y01",
    "name": "Schadow-Gymnasium",
    "lat": 52.4314711,
    "lon": 13.2547402,
    "address": "Beuckestraße 27, 14163 Berlin",
    "bezirk": "Steglitz-Zehlendorf",
    "art": "unbekannt",
    "status": "Kontrolle",
    "csvRowId": 353
  },
  {
    "schoolId": "06X02",
    "name": "Droste-Hülshoff-Gymnasium",
    "lat": 52.4282878,
    "lon": 13.2573997,
    "address": "Schönower Str. 8, 14165 Berlin",
    "bezirk": "Steglitz-Zehlendorf",
    "art": "unbekannt",
    "status": "Kontrolle",
    "csvRowId": 354
  },
  {
    "schoolId": "06Y04",
    "name": "Dreilinden-Gymnasium",
    "lat": 52.51004,
    "lon": 13.26732,
    "address": "Bayernallee 49, 14052 Berlin",
    "bezirk": "Steglitz-Zehlendorf",
    "art": "unbekannt",
    "status": "Kontrolle",
    "csvRowId": 355
  },
  {
    "schoolId": "06Y05",
    "name": "Werner-von-Siemens-Oberschule",
    "lat": 52.56270019999999,
    "lon": 13.3733967,
    "address": "Reginhardstr. 63, 13409 Berlin",
    "bezirk": "Steglitz-Zehlendorf",
    "art": "unbekannt",
    "status": "Kontrolle",
    "csvRowId": 356
  },
  {
    "schoolId": "06G10",
    "name": "Grundschule am Buschgraben",
    "lat": 52.4293091,
    "lon": 13.2582887,
    "address": "Schönower Str. 3, 14165 Berlin",
    "bezirk": "Steglitz-Zehlendorf",
    "art": "unbekannt",
    "status": "Kontrolle",
    "csvRowId": 357
  },
  {
    "schoolId": "06K01",
    "name": "John-F.-Kennedy-Schule",
    "lat": 52.4062276,
    "lon": 13.2675823,
    "address": "Teltower Damm 300, 14167 Berlin",
    "bezirk": "Steglitz-Zehlendorf",
    "art": "unbekannt",
    "status": "Kontrolle",
    "csvRowId": 358
  },